<?xml version="1.0" encoding="UTF-8"?><NewDataSet><hotspot><AP_ID>BQ050001</AP_ID><HOTSPOT_NAME>江子翠站</HOTSPOT_NAME><AREA>捷運站</AREA><ADDRESS>新北市板橋區文化路二段296號(5,6號出口往1,2號出口走道區中央上方位置)</ADDRESS><HOTSPOT_TYPE>Taipei Free免費無線上網熱點(室內)</HOTSPOT_TYPE><LNG>121.472311</LNG><LAT>25.02965</LAT><STATUS>0</STATUS></hotspot><hotspot><AP_ID>BQ050002</AP_ID><HOTSPOT_NAME>江子翠站</HOTSPOT_NAME><AREA>捷運站</AREA><ADDRESS>新北市板橋區文化路二段296號B1(B1非付費區近詢問處)</ADDRESS><HOTSPOT_TYPE>Taipei Free免費無線上網熱點(室內)</HOTSPOT_TYPE><LNG>121.472311</LNG><LAT>25.02965</LAT><STATUS>0</STATUS></hotspot><hotspot><AP_ID>BQ050003</AP_ID><HOTSPOT_NAME>江子翠站</HOTSPOT_NAME><AREA>捷運站</AREA><ADDRESS>新北市板橋區文化路二段296號B1(一,二號出口走到交接點)</ADDRESS><HOTSPOT_TYPE>Taipei Free免費無線上網熱點(室內)</HOTSPOT_TYPE><LNG>121.472311</LNG><LAT>25.02965</LAT><STATUS>0</STATUS></hotspot><hotspot><AP_ID>BQ050004</AP_ID><HOTSPOT_NAME>江子翠站</HOTSPOT_NAME><AREA>捷運站</AREA><ADDRESS>新北市板橋區文化路二段296號B1(三號出口B1電扶梯前)</ADDRESS><HOTSPOT_TYPE>Taipei Free免費無線上網熱點(室內)</HOTSPOT_TYPE><LNG>121.472311</LNG><LAT>25.02965</LAT><STATUS>0</STATUS></hotspot><hotspot><AP_ID>BQ050005</AP_ID><HOTSPOT_NAME>江子翠站</HOTSPOT_NAME><AREA>捷運站</AREA><ADDRESS>新北市板橋區文化路二段296號B1(五號出口B1電扶梯前)</ADDRESS><HOTSPOT_TYPE>Taipei Free免費無線上網熱點(室內)</HOTSPOT_TYPE><LNG>121.472311</LNG><LAT>25.02965</LAT><STATUS>0</STATUS></hotspot><hotspot><AP_ID>BQ050007</AP_ID><HOTSPOT_NAME>江子翠站</HOTSPOT_NAME><AREA>捷運站</AREA><ADDRESS>新北市板橋區文化路二段296號B1(月台層北側)</ADDRESS><HOTSPOT_TYPE>Taipei Free免費無線上網熱點(室內)</HOTSPOT_TYPE><LNG>121.472311</LNG><LAT>25.02965</LAT><STATUS>0</STATUS></hotspot><hotspot><AP_ID>BQ050008</AP_ID><HOTSPOT_NAME>江子翠站</HOTSPOT_NAME><AREA>捷運站</AREA><ADDRESS>新北市板橋區文化路二段296號B1(月台層南側)</ADDRESS><HOTSPOT_TYPE>Taipei Free免費無線上網熱點(室內)</HOTSPOT_TYPE><LNG>121.472311</LNG><LAT>25.02965</LAT><STATUS>0</STATUS></hotspot><hotspot><AP_ID>BQ050009</AP_ID><HOTSPOT_NAME>江子翠站</HOTSPOT_NAME><AREA>捷運站</AREA><ADDRESS>新北市板橋區文化路二段296號B1(四號出口B1電扶梯前)</ADDRESS><HOTSPOT_TYPE>Taipei Free免費無線上網熱點(室內)</HOTSPOT_TYPE><LNG>121.472311</LNG><LAT>25.02965</LAT><STATUS>0</STATUS></hotspot><hotspot><AP_ID>BQ050010</AP_ID><HOTSPOT_NAME>新埔站</HOTSPOT_NAME><AREA>捷運站</AREA><ADDRESS>新北市板橋區民生路三段2號B1(B1一號出口轉角處)</ADDRESS><HOTSPOT_TYPE>Taipei Free免費無線上網熱點(室內)</HOTSPOT_TYPE><LNG>121.468174</LNG><LAT>25.024236</LAT><STATUS>0</STATUS></hotspot><hotspot><AP_ID>BQ050011</AP_ID><HOTSPOT_NAME>新埔站</HOTSPOT_NAME><AREA>捷運站</AREA><ADDRESS>新北市板橋區民生路三段2號B1(非付費區2、3號出口方向走道，上網桌旁)</ADDRESS><HOTSPOT_TYPE>Taipei Free免費無線上網熱點(室內)</HOTSPOT_TYPE><LNG>121.468174</LNG><LAT>25.024236</LAT><STATUS>0</STATUS></hotspot><hotspot><AP_ID>BQ050012</AP_ID><HOTSPOT_NAME>新埔站</HOTSPOT_NAME><AREA>捷運站</AREA><ADDRESS>新北市板橋區民生路三段2號B1(詢問處前)</ADDRESS><HOTSPOT_TYPE>Taipei Free免費無線上網熱點(室內)</HOTSPOT_TYPE><LNG>121.468174</LNG><LAT>25.024236</LAT><STATUS>0</STATUS></hotspot><hotspot><AP_ID>BQ050013</AP_ID><HOTSPOT_NAME>新埔站</HOTSPOT_NAME><AREA>捷運站</AREA><ADDRESS>新北市板橋區民生路三段2號B1(B1層5號出口走道內)</ADDRESS><HOTSPOT_TYPE>Taipei Free免費無線上網熱點(室內)</HOTSPOT_TYPE><LNG>121.468174</LNG><LAT>25.024236</LAT><STATUS>0</STATUS></hotspot><hotspot><AP_ID>BQ050014</AP_ID><HOTSPOT_NAME>新埔站</HOTSPOT_NAME><AREA>捷運站</AREA><ADDRESS>新北市板橋區民生路三段2號B1(月台層北邊)</ADDRESS><HOTSPOT_TYPE>Taipei Free免費無線上網熱點(室內)</HOTSPOT_TYPE><LNG>121.468174</LNG><LAT>25.024236</LAT><STATUS>0</STATUS></hotspot><hotspot><AP_ID>BQ050015</AP_ID><HOTSPOT_NAME>新埔站</HOTSPOT_NAME><AREA>捷運站</AREA><ADDRESS>新北市板橋區民生路三段2號B1(月台層南邊)</ADDRESS><HOTSPOT_TYPE>Taipei Free免費無線上網熱點(室內)</HOTSPOT_TYPE><LNG>121.468174</LNG><LAT>25.024236</LAT><STATUS>0</STATUS></hotspot><hotspot><AP_ID>BQ050016</AP_ID><HOTSPOT_NAME>新埔站</HOTSPOT_NAME><AREA>捷運站</AREA><ADDRESS>新北市板橋區民生路三段2號B1(付費區B1走道近123號出口)</ADDRESS><HOTSPOT_TYPE>Taipei Free免費無線上網熱點(室內)</HOTSPOT_TYPE><LNG>121.468174</LNG><LAT>25.024236</LAT><STATUS>0</STATUS></hotspot><hotspot><AP_ID>BQ050017</AP_ID><HOTSPOT_NAME>新埔站</HOTSPOT_NAME><AREA>捷運站</AREA><ADDRESS>新北市板橋區民生路三段2號B1(非付費區B1走道近詢問處)</ADDRESS><HOTSPOT_TYPE>Taipei Free免費無線上網熱點(室內)</HOTSPOT_TYPE><LNG>121.468174</LNG><LAT>25.024236</LAT><STATUS>0</STATUS></hotspot><hotspot><AP_ID>BQ050018</AP_ID><HOTSPOT_NAME>府中站</HOTSPOT_NAME><AREA>捷運站</AREA><ADDRESS>新北市板橋區縣民大道一段193號B1(B5月台層，靠(車行方向永寧)月台邊上方)</ADDRESS><HOTSPOT_TYPE>Taipei Free免費無線上網熱點(室內)</HOTSPOT_TYPE><LNG>121.4594</LNG><LAT>25.00863</LAT><STATUS>0</STATUS></hotspot><hotspot><AP_ID>BQ050019</AP_ID><HOTSPOT_NAME>亞東醫院站</HOTSPOT_NAME><AREA>捷運站</AREA><ADDRESS>新北市板橋區南雅南路二段17號B1(付費區內詢問處前)</ADDRESS><HOTSPOT_TYPE>Taipei Free免費無線上網熱點(室內)</HOTSPOT_TYPE><LNG>121.4524</LNG><LAT>24.99881</LAT><STATUS>0</STATUS></hotspot><hotspot><AP_ID>BQ050020</AP_ID><HOTSPOT_NAME>亞東醫院站</HOTSPOT_NAME><AREA>捷運站</AREA><ADDRESS>新北市板橋區南雅南路二段17號B1(月台層站體南側，車行方向往南港展覽館，往1、2、3號出口樓梯前)</ADDRESS><HOTSPOT_TYPE>Taipei Free免費無線上網熱點(室內)</HOTSPOT_TYPE><LNG>121.4523</LNG><LAT>24.99813</LAT><STATUS>0</STATUS></hotspot><hotspot><AP_ID>BQ050021</AP_ID><HOTSPOT_NAME>亞東醫院站</HOTSPOT_NAME><AREA>捷運站</AREA><ADDRESS>新北市板橋區南雅南路二段17號B1(月台層站體南側，車行方向往永寧，告示板前)</ADDRESS><HOTSPOT_TYPE>Taipei Free免費無線上網熱點(室內)</HOTSPOT_TYPE><LNG>121.452</LNG><LAT>24.99783</LAT><STATUS>0</STATUS></hotspot><hotspot><AP_ID>BQ050022</AP_ID><HOTSPOT_NAME>板橋站</HOTSPOT_NAME><AREA>捷運站</AREA><ADDRESS>新北市板橋區站前路5號B1(詢問處層站體北側出入口往南第二根柱子靠手扶梯旁上方)</ADDRESS><HOTSPOT_TYPE>Taipei Free免費無線上網熱點(室內)</HOTSPOT_TYPE><LNG>121.4631</LNG><LAT>25.01505</LAT><STATUS>0</STATUS></hotspot><hotspot><AP_ID>BQ050023</AP_ID><HOTSPOT_NAME>板橋站</HOTSPOT_NAME><AREA>捷運站</AREA><ADDRESS>新北市板橋區站前路5號B1(詢問處層站體南側詢問處後方靠手扶梯及電梯中間上方)</ADDRESS><HOTSPOT_TYPE>Taipei Free免費無線上網熱點(室內)</HOTSPOT_TYPE><LNG>121.4628</LNG><LAT>25.01454</LAT><STATUS>0</STATUS></hotspot><hotspot><AP_ID>BQ050024</AP_ID><HOTSPOT_NAME>板橋站</HOTSPOT_NAME><AREA>捷運站</AREA><ADDRESS>新北市板橋區站前路5號B1(川堂層站體北側(B09電信室)前上方)</ADDRESS><HOTSPOT_TYPE>Taipei Free免費無線上網熱點(室內)</HOTSPOT_TYPE><LNG>121.463</LNG><LAT>25.01434</LAT><STATUS>0</STATUS></hotspot><hotspot><AP_ID>BQ050025</AP_ID><HOTSPOT_NAME>板橋站</HOTSPOT_NAME><AREA>捷運站</AREA><ADDRESS>新北市板橋區站前路5號B1(川堂層站體北側過高鐵、台鐵中央走道第二根及第三根柱子中間上方)</ADDRESS><HOTSPOT_TYPE>Taipei Free免費無線上網熱點(室內)</HOTSPOT_TYPE><LNG>121.4626</LNG><LAT>25.01453</LAT><STATUS>0</STATUS></hotspot><hotspot><AP_ID>BQ050026</AP_ID><HOTSPOT_NAME>板橋站</HOTSPOT_NAME><AREA>捷運站</AREA><ADDRESS>新北市板橋區站前路5號B1(川堂層站體南側往北過手扶梯，第一根與第二根柱子中間上方)</ADDRESS><HOTSPOT_TYPE>Taipei Free免費無線上網熱點(室內)</HOTSPOT_TYPE><LNG>121.4629</LNG><LAT>25.01499</LAT><STATUS>0</STATUS></hotspot><hotspot><AP_ID>BQ050027</AP_ID><HOTSPOT_NAME>板橋站</HOTSPOT_NAME><AREA>捷運站</AREA><ADDRESS>新北市板橋區站前路5號B1(川堂層站體南側往北過手扶梯，第四根與第五根柱子中間上方)</ADDRESS><HOTSPOT_TYPE>Taipei Free免費無線上網熱點(室內)</HOTSPOT_TYPE><LNG>121.4626</LNG><LAT>25.01462</LAT><STATUS>0</STATUS></hotspot><hotspot><AP_ID>BQ050028</AP_ID><HOTSPOT_NAME>板橋站</HOTSPOT_NAME><AREA>捷運站</AREA><ADDRESS>新北市板橋區站前路5號B1(月台層站體北側，靠(車行方向永寧)，由北往南第四根與第五根柱子上方)</ADDRESS><HOTSPOT_TYPE>Taipei Free免費無線上網熱點(室內)</HOTSPOT_TYPE><LNG>121.4629</LNG><LAT>25.01469</LAT><STATUS>0</STATUS></hotspot><hotspot><AP_ID>BQ050029</AP_ID><HOTSPOT_NAME>板橋站</HOTSPOT_NAME><AREA>捷運站</AREA><ADDRESS>新北市板橋區站前路5號B1(月台層站體南側，靠(車行方向台北車站、昆陽)，由南往北第三根與第四根柱子上方)</ADDRESS><HOTSPOT_TYPE>Taipei Free免費無線上網熱點(室內)</HOTSPOT_TYPE><LNG>121.4629</LNG><LAT>25.01439</LAT><STATUS>0</STATUS></hotspot><hotspot><AP_ID>BQ050030</AP_ID><HOTSPOT_NAME>府中站</HOTSPOT_NAME><AREA>捷運站</AREA><ADDRESS>新北市板橋區縣民大道一段193號B1(B3月台層，靠(車行方向台北車站、昆陽)月台邊上方)</ADDRESS><HOTSPOT_TYPE>Taipei Free免費無線上網熱點(室內)</HOTSPOT_TYPE><LNG>121.4592</LNG><LAT>25.00876</LAT><STATUS>0</STATUS></hotspot><hotspot><AP_ID>BQ050031</AP_ID><HOTSPOT_NAME>府中站</HOTSPOT_NAME><AREA>捷運站</AREA><ADDRESS>新北市板橋區縣民大道一段193號B1(B3月台層東側(詢問處層上B3月台層中央廣場)上方)</ADDRESS><HOTSPOT_TYPE>Taipei Free免費無線上網熱點(室內)</HOTSPOT_TYPE><LNG>121.459</LNG><LAT>25.0084</LAT><STATUS>0</STATUS></hotspot><hotspot><AP_ID>BQ050032</AP_ID><HOTSPOT_NAME>府中站</HOTSPOT_NAME><AREA>捷運站</AREA><ADDRESS>新北市板橋區縣民大道一段193號B1(詢問處層由電梯門口往前數第三根及第四根柱子上方)</ADDRESS><HOTSPOT_TYPE>Taipei Free免費無線上網熱點(室內)</HOTSPOT_TYPE><LNG>121.4594</LNG><LAT>25.00885</LAT><STATUS>0</STATUS></hotspot><hotspot><AP_ID>BQ050033</AP_ID><HOTSPOT_NAME>板橋站</HOTSPOT_NAME><AREA>捷運站</AREA><ADDRESS>新北市板橋區站前路5號B1(1、2號出口中間)</ADDRESS><HOTSPOT_TYPE>Taipei Free免費無線上網熱點(室內)</HOTSPOT_TYPE><LNG>121.4629</LNG><LAT>25.01425</LAT><STATUS>0</STATUS></hotspot><hotspot><AP_ID>BT020001</AP_ID><HOTSPOT_NAME>北投區行政中心</HOTSPOT_NAME><AREA>區行政中心</AREA><ADDRESS>臺北市北投區新市街30號1樓(入口右側走廊上方天花板)</ADDRESS><HOTSPOT_TYPE>Taipei Free免費無線上網熱點(室內)</HOTSPOT_TYPE><LNG>121.503</LNG><LAT>25.132426</LAT><STATUS>0</STATUS></hotspot><hotspot><AP_ID>BT020002</AP_ID><HOTSPOT_NAME>北投區行政中心</HOTSPOT_NAME><AREA>區行政中心</AREA><ADDRESS>臺北市北投區新市街30號3樓(戶政事務所綜合受理1號櫃台前上方天花板)</ADDRESS><HOTSPOT_TYPE>Taipei Free免費無線上網熱點(室內)</HOTSPOT_TYPE><LNG>121.503</LNG><LAT>25.132426</LAT><STATUS>0</STATUS></hotspot><hotspot><AP_ID>BT020003</AP_ID><HOTSPOT_NAME>北投區行政中心</HOTSPOT_NAME><AREA>區行政中心</AREA><ADDRESS>臺北市北投區新市街30號3樓(志工服務台上方)</ADDRESS><HOTSPOT_TYPE>Taipei Free免費無線上網熱點(室內)</HOTSPOT_TYPE><LNG>121.503</LNG><LAT>25.132426</LAT><STATUS>0</STATUS></hotspot><hotspot><AP_ID>BT020004</AP_ID><HOTSPOT_NAME>北投區行政中心</HOTSPOT_NAME><AREA>區行政中心</AREA><ADDRESS>臺北市北投區新市街30號4樓(好便利11號櫃檯前天花板)</ADDRESS><HOTSPOT_TYPE>Taipei Free免費無線上網熱點(室內)</HOTSPOT_TYPE><LNG>121.503</LNG><LAT>25.132426</LAT><STATUS>0</STATUS></hotspot><hotspot><AP_ID>BT020005</AP_ID><HOTSPOT_NAME>北投區行政中心</HOTSPOT_NAME><AREA>區行政中心</AREA><ADDRESS>臺北市北投區新市街30號4樓(調解委員會門前天花板)</ADDRESS><HOTSPOT_TYPE>Taipei Free免費無線上網熱點(室內)</HOTSPOT_TYPE><LNG>121.503</LNG><LAT>25.132426</LAT><STATUS>0</STATUS></hotspot><hotspot><AP_ID>BT020006</AP_ID><HOTSPOT_NAME>北投區行政中心</HOTSPOT_NAME><AREA>區行政中心</AREA><ADDRESS>臺北市北投區新市街30號5樓(社服中心門前第五塊天花板)</ADDRESS><HOTSPOT_TYPE>Taipei Free免費無線上網熱點(室內)</HOTSPOT_TYPE><LNG>121.503</LNG><LAT>25.132426</LAT><STATUS>0</STATUS></hotspot><hotspot><AP_ID>BT020007</AP_ID><HOTSPOT_NAME>北投區行政中心</HOTSPOT_NAME><AREA>區行政中心</AREA><ADDRESS>臺北市北投區新市街30號5樓(就業服務處門前天花板)</ADDRESS><HOTSPOT_TYPE>Taipei Free免費無線上網熱點(室內)</HOTSPOT_TYPE><LNG>121.503</LNG><LAT>25.132426</LAT><STATUS>0</STATUS></hotspot><hotspot><AP_ID>BT030001</AP_ID><HOTSPOT_NAME>秀山民眾閱覽室</HOTSPOT_NAME><AREA>閱覽室</AREA><ADDRESS>臺北市北投區中和街534號6樓(閱讀室牌示正前方2塊天花板處)</ADDRESS><HOTSPOT_TYPE>Taipei Free免費無線上網熱點(室內)</HOTSPOT_TYPE><LNG>121.493118</LNG><LAT>25.145577</LAT><STATUS>0</STATUS></hotspot><hotspot><AP_ID>BT030002</AP_ID><HOTSPOT_NAME>秀山民眾閱覽室</HOTSPOT_NAME><AREA>閱覽室</AREA><ADDRESS>臺北市北投區中和街534號7樓(自修區牌示正後方三塊天花板處)</ADDRESS><HOTSPOT_TYPE>Taipei Free免費無線上網熱點(室內)</HOTSPOT_TYPE><LNG>121.493118</LNG><LAT>25.145577</LAT><STATUS>0</STATUS></hotspot><hotspot><AP_ID>BT030003</AP_ID><HOTSPOT_NAME>清江分館</HOTSPOT_NAME><AREA>圖書館</AREA><ADDRESS>臺北市北投區公館路198號3樓(10號書架與自修區之間上方)</ADDRESS><HOTSPOT_TYPE>Taipei Free免費無線上網熱點(室內)</HOTSPOT_TYPE><LNG>121.50735</LNG><LAT>25.127735</LAT><STATUS>0</STATUS></hotspot><hotspot><AP_ID>BT030004</AP_ID><HOTSPOT_NAME>清江分館</HOTSPOT_NAME><AREA>圖書館</AREA><ADDRESS>臺北市北投區公館路198號3樓(筆電區與視聽資料區間上)</ADDRESS><HOTSPOT_TYPE>Taipei Free免費無線上網熱點(室內)</HOTSPOT_TYPE><LNG>121.50735</LNG><LAT>25.127735</LAT><STATUS>0</STATUS></hotspot><hotspot><AP_ID>BT030005</AP_ID><HOTSPOT_NAME>永明民眾閱覽室</HOTSPOT_NAME><AREA>閱覽室</AREA><ADDRESS>臺北市北投區石牌路二段115號7樓(兒童圖書區正前方第2塊石膏板)</ADDRESS><HOTSPOT_TYPE>Taipei Free免費無線上網熱點(室內)</HOTSPOT_TYPE><LNG>121.517176</LNG><LAT>25.118068</LAT><STATUS>0</STATUS></hotspot><hotspot><AP_ID>BT030006</AP_ID><HOTSPOT_NAME>永明民眾閱覽室</HOTSPOT_NAME><AREA>閱覽室</AREA><ADDRESS>臺北市北投區石牌路二段115號8樓(座位區第一張桌子上方)</ADDRESS><HOTSPOT_TYPE>Taipei Free免費無線上網熱點(室內)</HOTSPOT_TYPE><LNG>121.517176</LNG><LAT>25.118068</LAT><STATUS>0</STATUS></hotspot><hotspot><AP_ID>BT030007</AP_ID><HOTSPOT_NAME>吉利分館</HOTSPOT_NAME><AREA>圖書館</AREA><ADDRESS>臺北市北投區立農街一段366號5樓(自修室正中央天花板上)</ADDRESS><HOTSPOT_TYPE>Taipei Free免費無線上網熱點(室內)</HOTSPOT_TYPE><LNG>121.508385</LNG><LAT>25.119306</LAT><STATUS>0</STATUS></hotspot><hotspot><AP_ID>BT030009</AP_ID><HOTSPOT_NAME>吉利分館</HOTSPOT_NAME><AREA>圖書館</AREA><ADDRESS>臺北市北投區立農街一段366號7樓(參考區及期刊閱報區正中央天花板上)</ADDRESS><HOTSPOT_TYPE>Taipei Free免費無線上網熱點(室內)</HOTSPOT_TYPE><LNG>121.508385</LNG><LAT>25.119306</LAT><STATUS>0</STATUS></hotspot><hotspot><AP_ID>BT030010</AP_ID><HOTSPOT_NAME>吉利分館</HOTSPOT_NAME><AREA>圖書館</AREA><ADDRESS>臺北市北投區立農街一段366號8樓(圖書區正中央天花板上)</ADDRESS><HOTSPOT_TYPE>Taipei Free免費無線上網熱點(室內)</HOTSPOT_TYPE><LNG>121.508385</LNG><LAT>25.119306</LAT><STATUS>0</STATUS></hotspot><hotspot><AP_ID>BT030011</AP_ID><HOTSPOT_NAME>北投分館</HOTSPOT_NAME><AREA>圖書館</AREA><ADDRESS>臺北市北投區光明路251號1樓【中文圖書區中間位置天花板內】</ADDRESS><HOTSPOT_TYPE>Taipei Free免費無線上網熱點(室內)</HOTSPOT_TYPE><LNG>121.506296</LNG><LAT>25.136298</LAT><STATUS>0</STATUS></hotspot><hotspot><AP_ID>BT030012</AP_ID><HOTSPOT_NAME>北投分館</HOTSPOT_NAME><AREA>圖書館</AREA><ADDRESS>臺北市北投區光明路251號1樓【閱報區中間位置天花板內】</ADDRESS><HOTSPOT_TYPE>Taipei Free免費無線上網熱點(室內)</HOTSPOT_TYPE><LNG>121.506296</LNG><LAT>25.136298</LAT><STATUS>0</STATUS></hotspot><hotspot><AP_ID>BT030013</AP_ID><HOTSPOT_NAME>北投分館</HOTSPOT_NAME><AREA>圖書館</AREA><ADDRESS>臺北市北投區光明路251號2樓【多功能討論室門前天花板內】</ADDRESS><HOTSPOT_TYPE>Taipei Free免費無線上網熱點(室內)</HOTSPOT_TYPE><LNG>121.506296</LNG><LAT>25.136298</LAT><STATUS>0</STATUS></hotspot><hotspot><AP_ID>BT030014</AP_ID><HOTSPOT_NAME>北投分館</HOTSPOT_NAME><AREA>圖書館</AREA><ADDRESS>臺北市北投區光明路251號B1【閱讀區中間位置天花板內】</ADDRESS><HOTSPOT_TYPE>Taipei Free免費無線上網熱點(室內)</HOTSPOT_TYPE><LNG>121.506296</LNG><LAT>25.136298</LAT><STATUS>0</STATUS></hotspot><hotspot><AP_ID>BT030015</AP_ID><HOTSPOT_NAME>石牌分館</HOTSPOT_NAME><AREA>圖書館</AREA><ADDRESS>臺北市北投區明德路208巷5號3樓【自修室中間上方處)】</ADDRESS><HOTSPOT_TYPE>Taipei Free免費無線上網熱點(室內)</HOTSPOT_TYPE><LNG>121.52266</LNG><LAT>25.113177</LAT><STATUS>0</STATUS></hotspot><hotspot><AP_ID>BT030016</AP_ID><HOTSPOT_NAME>石牌分館</HOTSPOT_NAME><AREA>圖書館</AREA><ADDRESS>臺北市北投區明德路208巷5號4樓【期刊區與綜合服務區上方處(維修孔)】</ADDRESS><HOTSPOT_TYPE>Taipei Free免費無線上網熱點(室內)</HOTSPOT_TYPE><LNG>121.52266</LNG><LAT>25.113177</LAT><STATUS>0</STATUS></hotspot><hotspot><AP_ID>BT030017</AP_ID><HOTSPOT_NAME>石牌分館</HOTSPOT_NAME><AREA>圖書館</AREA><ADDRESS>臺北市北投區明德路208巷5號9樓(青少年中文圖書區(高中區)</ADDRESS><HOTSPOT_TYPE>Taipei Free免費無線上網熱點(室內)</HOTSPOT_TYPE><LNG>121.52266</LNG><LAT>25.113177</LAT><STATUS>0</STATUS></hotspot><hotspot><AP_ID>BT030018</AP_ID><HOTSPOT_NAME>石牌分館</HOTSPOT_NAME><AREA>圖書館</AREA><ADDRESS>臺北市北投區明德路208巷5號6樓【開假閱覽室中間處(維修孔)】</ADDRESS><HOTSPOT_TYPE>Taipei Free免費無線上網熱點(室內)</HOTSPOT_TYPE><LNG>121.52266</LNG><LAT>25.113177</LAT><STATUS>0</STATUS></hotspot><hotspot><AP_ID>BT030019</AP_ID><HOTSPOT_NAME>石牌分館</HOTSPOT_NAME><AREA>圖書館</AREA><ADDRESS>臺北市北投區明德路208巷5號7樓【外文書籍區上方(維修孔)】</ADDRESS><HOTSPOT_TYPE>Taipei Free免費無線上網熱點(室內)</HOTSPOT_TYPE><LNG>121.52266</LNG><LAT>25.113177</LAT><STATUS>0</STATUS></hotspot><hotspot><AP_ID>BT030020</AP_ID><HOTSPOT_NAME>石牌分館</HOTSPOT_NAME><AREA>圖書館</AREA><ADDRESS>臺北市北投區明德路208巷5號8樓【參考資料區靠窗戶邊上方(維修孔)】</ADDRESS><HOTSPOT_TYPE>Taipei Free免費無線上網熱點(室內)</HOTSPOT_TYPE><LNG>121.52266</LNG><LAT>25.113177</LAT><STATUS>0</STATUS></hotspot><hotspot><AP_ID>BT030021</AP_ID><HOTSPOT_NAME>稻香分館</HOTSPOT_NAME><AREA>圖書館</AREA><ADDRESS>臺北市北投區稻香路81號3樓(一般圖書區右方14號櫃前天花板)</ADDRESS><HOTSPOT_TYPE>Taipei Free免費無線上網熱點(室內)</HOTSPOT_TYPE><LNG>121.489538</LNG><LAT>25.140952</LAT><STATUS>0</STATUS></hotspot><hotspot><AP_ID>BT030022</AP_ID><HOTSPOT_NAME>稻香分館</HOTSPOT_NAME><AREA>圖書館</AREA><ADDRESS>臺北市北投區稻香路81號4樓(自修室門口進去約1米半處天花板，自修室入口處)</ADDRESS><HOTSPOT_TYPE>Taipei Free免費無線上網熱點(室內)</HOTSPOT_TYPE><LNG>121.489538</LNG><LAT>25.140952</LAT><STATUS>0</STATUS></hotspot><hotspot><AP_ID>BT030023</AP_ID><HOTSPOT_NAME>吉利分館</HOTSPOT_NAME><AREA>圖書館</AREA><ADDRESS>臺北市北投區立農街一段366號6樓(櫃台前方)</ADDRESS><HOTSPOT_TYPE>Taipei Free免費無線上網熱點(室內)</HOTSPOT_TYPE><LNG>121.50842</LNG><LAT>25.11926</LAT><STATUS>0</STATUS></hotspot><hotspot><AP_ID>BT040001</AP_ID><HOTSPOT_NAME>關渡醫院</HOTSPOT_NAME><AREA>關渡醫院</AREA><ADDRESS>臺北市北投區知行路225巷12號(1F領藥櫃台內天花板)</ADDRESS><HOTSPOT_TYPE>Taipei Free免費無線上網熱點(室內)</HOTSPOT_TYPE><LNG>121.4663</LNG><LAT>25.12042</LAT><STATUS>0</STATUS></hotspot><hotspot><AP_ID>BT040002</AP_ID><HOTSPOT_NAME>關渡醫院</HOTSPOT_NAME><AREA>關渡醫院</AREA><ADDRESS>臺北市北投區知行路225巷12號(1F急診大廳中央天花板)</ADDRESS><HOTSPOT_TYPE>Taipei Free免費無線上網熱點(室內)</HOTSPOT_TYPE><LNG>121.4664</LNG><LAT>25.12045</LAT><STATUS>0</STATUS></hotspot><hotspot><AP_ID>BT040003</AP_ID><HOTSPOT_NAME>關渡醫院</HOTSPOT_NAME><AREA>關渡醫院</AREA><ADDRESS>臺北市北投區知行路225巷12號(1F等候大廳中央天花板)</ADDRESS><HOTSPOT_TYPE>Taipei Free免費無線上網熱點(室內)</HOTSPOT_TYPE><LNG>121.4664</LNG><LAT>25.12049</LAT><STATUS>0</STATUS></hotspot><hotspot><AP_ID>BT040004</AP_ID><HOTSPOT_NAME>關渡醫院</HOTSPOT_NAME><AREA>關渡醫院</AREA><ADDRESS>臺北市北投區知行路225巷12號(1FX光掛號台前天花板)</ADDRESS><HOTSPOT_TYPE>Taipei Free免費無線上網熱點(室內)</HOTSPOT_TYPE><LNG>121.4663</LNG><LAT>25.1204</LAT><STATUS>0</STATUS></hotspot><hotspot><AP_ID>BT040005</AP_ID><HOTSPOT_NAME>關渡醫院</HOTSPOT_NAME><AREA>關渡醫院</AREA><ADDRESS>臺北市北投區知行路225巷12號(2F隔離病房護理站前天花板)</ADDRESS><HOTSPOT_TYPE>Taipei Free免費無線上網熱點(室內)</HOTSPOT_TYPE><LNG>121.4663</LNG><LAT>25.12052</LAT><STATUS>0</STATUS></hotspot><hotspot><AP_ID>BT040006</AP_ID><HOTSPOT_NAME>關渡醫院</HOTSPOT_NAME><AREA>關渡醫院</AREA><ADDRESS>臺北市北投區知行路225巷12號(2F206門診前上方天花板)</ADDRESS><HOTSPOT_TYPE>Taipei Free免費無線上網熱點(室內)</HOTSPOT_TYPE><LNG>121.4662</LNG><LAT>25.12038</LAT><STATUS>0</STATUS></hotspot><hotspot><AP_ID>BT040007</AP_ID><HOTSPOT_NAME>關渡醫院</HOTSPOT_NAME><AREA>關渡醫院</AREA><ADDRESS>臺北市北投區知行路225巷12號(2F腎臟科辦公室前天花板)</ADDRESS><HOTSPOT_TYPE>Taipei Free免費無線上網熱點(室內)</HOTSPOT_TYPE><LNG>121.4662</LNG><LAT>25.12056</LAT><STATUS>0</STATUS></hotspot><hotspot><AP_ID>BT040008</AP_ID><HOTSPOT_NAME>關渡醫院</HOTSPOT_NAME><AREA>關渡醫院</AREA><ADDRESS>臺北市北投區知行路225巷12號(3F門診等候區中央天花板)</ADDRESS><HOTSPOT_TYPE>Taipei Free免費無線上網熱點(室內)</HOTSPOT_TYPE><LNG>121.4661</LNG><LAT>25.12056</LAT><STATUS>0</STATUS></hotspot><hotspot><AP_ID>BT040009</AP_ID><HOTSPOT_NAME>關渡醫院</HOTSPOT_NAME><AREA>關渡醫院</AREA><ADDRESS>臺北市北投區知行路225巷12號(3F復健科內天花板)</ADDRESS><HOTSPOT_TYPE>Taipei Free免費無線上網熱點(室內)</HOTSPOT_TYPE><LNG>121.4661</LNG><LAT>25.12031</LAT><STATUS>0</STATUS></hotspot><hotspot><AP_ID>BT040010</AP_ID><HOTSPOT_NAME>關渡醫院</HOTSPOT_NAME><AREA>關渡醫院</AREA><ADDRESS>臺北市北投區知行路225巷12號(3F健檢等候區中央天花板)</ADDRESS><HOTSPOT_TYPE>Taipei Free免費無線上網熱點(室內)</HOTSPOT_TYPE><LNG>121.4661</LNG><LAT>25.12047</LAT><STATUS>0</STATUS></hotspot><hotspot><AP_ID>BT040011</AP_ID><HOTSPOT_NAME>關渡醫院</HOTSPOT_NAME><AREA>關渡醫院</AREA><ADDRESS>臺北市北投區知行路225巷12號(5F出電梯右側看診座位區上方天花板)</ADDRESS><HOTSPOT_TYPE>Taipei Free免費無線上網熱點(室內)</HOTSPOT_TYPE><LNG>121.4661</LNG><LAT>25.12055</LAT><STATUS>0</STATUS></hotspot><hotspot><AP_ID>BT040012</AP_ID><HOTSPOT_NAME>關渡醫院</HOTSPOT_NAME><AREA>關渡醫院</AREA><ADDRESS>臺北市北投區知行路225巷12號(6F護理站前天花板)</ADDRESS><HOTSPOT_TYPE>Taipei Free免費無線上網熱點(室內)</HOTSPOT_TYPE><LNG>121.4664</LNG><LAT>25.12058</LAT><STATUS>0</STATUS></hotspot><hotspot><AP_ID>BT040013</AP_ID><HOTSPOT_NAME>關渡醫院</HOTSPOT_NAME><AREA>關渡醫院</AREA><ADDRESS>臺北市北投區知行路225巷12號(7F護理站前天花板)</ADDRESS><HOTSPOT_TYPE>Taipei Free免費無線上網熱點(室內)</HOTSPOT_TYPE><LNG>121.4663</LNG><LAT>25.12058</LAT><STATUS>0</STATUS></hotspot><hotspot><AP_ID>BT040014</AP_ID><HOTSPOT_NAME>關渡醫院</HOTSPOT_NAME><AREA>關渡醫院</AREA><ADDRESS>臺北市北投區知行路225巷12號(8F護理站前天花板)</ADDRESS><HOTSPOT_TYPE>Taipei Free免費無線上網熱點(室內)</HOTSPOT_TYPE><LNG>121.4665</LNG><LAT>25.12058</LAT><STATUS>0</STATUS></hotspot><hotspot><AP_ID>BT040015</AP_ID><HOTSPOT_NAME>關渡醫院</HOTSPOT_NAME><AREA>關渡醫院</AREA><ADDRESS>臺北市北投區知行路225巷12號(9F護理站前天花板)</ADDRESS><HOTSPOT_TYPE>Taipei Free免費無線上網熱點(室內)</HOTSPOT_TYPE><LNG>121.4663</LNG><LAT>25.12058</LAT><STATUS>0</STATUS></hotspot><hotspot><AP_ID>BT040016</AP_ID><HOTSPOT_NAME>關渡醫院</HOTSPOT_NAME><AREA>關渡醫院</AREA><ADDRESS>臺北市北投區知行路225巷12號(12F護理中心旁休息等候區前天花板)</ADDRESS><HOTSPOT_TYPE>Taipei Free免費無線上網熱點(室內)</HOTSPOT_TYPE><LNG>121.4664</LNG><LAT>25.1205</LAT><STATUS>0</STATUS></hotspot><hotspot><AP_ID>BT050001</AP_ID><HOTSPOT_NAME>奇岩站</HOTSPOT_NAME><AREA>捷運站</AREA><ADDRESS>臺北市北投區三合街二段489號(1樓電梯左後方上面)</ADDRESS><HOTSPOT_TYPE>Taipei Free免費無線上網熱點(室內)</HOTSPOT_TYPE><LNG>121.500889</LNG><LAT>25.126605</LAT><STATUS>0</STATUS></hotspot><hotspot><AP_ID>BT050002</AP_ID><HOTSPOT_NAME>奇岩站</HOTSPOT_NAME><AREA>捷運站</AREA><ADDRESS>臺北市北投區三合街二段489號(出口右上方)</ADDRESS><HOTSPOT_TYPE>Taipei Free免費無線上網熱點(室內)</HOTSPOT_TYPE><LNG>121.500889</LNG><LAT>25.126605</LAT><STATUS>0</STATUS></hotspot><hotspot><AP_ID>BT050003</AP_ID><HOTSPOT_NAME>奇岩站</HOTSPOT_NAME><AREA>捷運站</AREA><ADDRESS>臺北市北投區三合街二段489號(往北投方向月台座位區)</ADDRESS><HOTSPOT_TYPE>Taipei Free免費無線上網熱點(室內)</HOTSPOT_TYPE><LNG>121.500889</LNG><LAT>25.126605</LAT><STATUS>0</STATUS></hotspot><hotspot><AP_ID>BT050004</AP_ID><HOTSPOT_NAME>奇岩站</HOTSPOT_NAME><AREA>捷運站</AREA><ADDRESS>臺北市北投區三合街二段489號(往台北方向月台座位區)</ADDRESS><HOTSPOT_TYPE>Taipei Free免費無線上網熱點(室內)</HOTSPOT_TYPE><LNG>121.500889</LNG><LAT>25.126605</LAT><STATUS>0</STATUS></hotspot><hotspot><AP_ID>BT050005</AP_ID><HOTSPOT_NAME>關渡站</HOTSPOT_NAME><AREA>捷運站</AREA><ADDRESS>臺北市北投區大度路三段296巷51號(1號月台近樓梯)</ADDRESS><HOTSPOT_TYPE>Taipei Free免費無線上網熱點(室內)</HOTSPOT_TYPE><LNG>121.4669</LNG><LAT>25.12529</LAT><STATUS>0</STATUS></hotspot><hotspot><AP_ID>BT050006</AP_ID><HOTSPOT_NAME>關渡站</HOTSPOT_NAME><AREA>捷運站</AREA><ADDRESS>臺北市北投區大度路三段296巷51號(2號月台近詢問處)</ADDRESS><HOTSPOT_TYPE>Taipei Free免費無線上網熱點(室內)</HOTSPOT_TYPE><LNG>121.4671</LNG><LAT>25.12563</LAT><STATUS>0</STATUS></hotspot><hotspot><AP_ID>BT050007</AP_ID><HOTSPOT_NAME>關渡站</HOTSPOT_NAME><AREA>捷運站</AREA><ADDRESS>臺北市北投區大度路三段296巷51號(天橋上)</ADDRESS><HOTSPOT_TYPE>Taipei Free免費無線上網熱點(室內)</HOTSPOT_TYPE><LNG>121.4671</LNG><LAT>25.12563</LAT><STATUS>0</STATUS></hotspot><hotspot><AP_ID>BT050008</AP_ID><HOTSPOT_NAME>捷運北投會館</HOTSPOT_NAME><AREA>為民服務單位</AREA><ADDRESS>臺北市北投區大業路527巷88號(3F房間編號310號前上方天花板)</ADDRESS><HOTSPOT_TYPE>Taipei Free免費無線上網熱點(室內)</HOTSPOT_TYPE><LNG>121.4835</LNG><LAT>25.13458</LAT><STATUS>0</STATUS></hotspot><hotspot><AP_ID>BT050010</AP_ID><HOTSPOT_NAME>捷運北投會館</HOTSPOT_NAME><AREA>為民服務單位</AREA><ADDRESS>臺北市北投區大業路527巷88號(2F房間編號209號前上方天花板)</ADDRESS><HOTSPOT_TYPE>Taipei Free免費無線上網熱點(室內)</HOTSPOT_TYPE><LNG>121.4836</LNG><LAT>25.13456</LAT><STATUS>0</STATUS></hotspot><hotspot><AP_ID>BT050011</AP_ID><HOTSPOT_NAME>捷運北投會館</HOTSPOT_NAME><AREA>為民服務單位</AREA><ADDRESS>臺北市北投區大業路527巷88號(逃生體驗營前方)</ADDRESS><HOTSPOT_TYPE>Taipei Free免費無線上網熱點(室內)</HOTSPOT_TYPE><LNG>121.4837</LNG><LAT>25.13489</LAT><STATUS>0</STATUS></hotspot><hotspot><AP_ID>BT050013</AP_ID><HOTSPOT_NAME>捷運北投會館</HOTSPOT_NAME><AREA>為民服務單位</AREA><ADDRESS>臺北市北投區大業路527巷88號(1F房間編號116號前上方天花板)</ADDRESS><HOTSPOT_TYPE>Taipei Free免費無線上網熱點(室內)</HOTSPOT_TYPE><LNG>121.4836</LNG><LAT>25.1347</LAT><STATUS>0</STATUS></hotspot><hotspot><AP_ID>BT050015</AP_ID><HOTSPOT_NAME>捷運北投會館</HOTSPOT_NAME><AREA>為民服務單位</AREA><ADDRESS>臺北市北投區大業路527巷88號(B1F國際會議廳門前上方天花板)</ADDRESS><HOTSPOT_TYPE>Taipei Free免費無線上網熱點(室內)</HOTSPOT_TYPE><LNG>121.4833</LNG><LAT>25.13472</LAT><STATUS>0</STATUS></hotspot><hotspot><AP_ID>BT050017</AP_ID><HOTSPOT_NAME>捷運北投會館</HOTSPOT_NAME><AREA>為民服務單位</AREA><ADDRESS>臺北市北投區大業路527巷88號(福臨門餐廳與學員宿舍中間走道上方)</ADDRESS><HOTSPOT_TYPE>Taipei Free免費無線上網熱點(室內)</HOTSPOT_TYPE><LNG>121.4836</LNG><LAT>25.13482</LAT><STATUS>0</STATUS></hotspot><hotspot><AP_ID>BT050018</AP_ID><HOTSPOT_NAME>捷運北投會館</HOTSPOT_NAME><AREA>為民服務單位</AREA><ADDRESS>臺北市北投區大業路527巷88號(B2櫃檯前上方)</ADDRESS><HOTSPOT_TYPE>Taipei Free免費無線上網熱點(室內)</HOTSPOT_TYPE><LNG>121.4837</LNG><LAT>25.13492</LAT><STATUS>0</STATUS></hotspot><hotspot><AP_ID>BT050019</AP_ID><HOTSPOT_NAME>新北投站</HOTSPOT_NAME><AREA>捷運站</AREA><ADDRESS>臺北市北投區大業路700號(1樓站內後方手扶梯上面)</ADDRESS><HOTSPOT_TYPE>Taipei Free免費無線上網熱點(室內)</HOTSPOT_TYPE><LNG>121.50253</LNG><LAT>25.136933</LAT><STATUS>0</STATUS></hotspot><hotspot><AP_ID>BT050020</AP_ID><HOTSPOT_NAME>新北投站</HOTSPOT_NAME><AREA>捷運站</AREA><ADDRESS>臺北市北投區大業路700號(往北投方向月台座位區)</ADDRESS><HOTSPOT_TYPE>Taipei Free免費無線上網熱點(室內)</HOTSPOT_TYPE><LNG>121.50253</LNG><LAT>25.136933</LAT><STATUS>0</STATUS></hotspot><hotspot><AP_ID>BT050021</AP_ID><HOTSPOT_NAME>新北投站</HOTSPOT_NAME><AREA>捷運站</AREA><ADDRESS>臺北市北投區大業路700號(往新北投公園方向月台座位區)</ADDRESS><HOTSPOT_TYPE>Taipei Free免費無線上網熱點(室內)</HOTSPOT_TYPE><LNG>121.50253</LNG><LAT>25.136933</LAT><STATUS>0</STATUS></hotspot><hotspot><AP_ID>BT050022</AP_ID><HOTSPOT_NAME>新北投站</HOTSPOT_NAME><AREA>捷運站</AREA><ADDRESS>臺北市北投區大業路700號(站外出口)</ADDRESS><HOTSPOT_TYPE>Taipei Free免費無線上網熱點(室內)</HOTSPOT_TYPE><LNG>121.50253</LNG><LAT>25.136933</LAT><STATUS>0</STATUS></hotspot><hotspot><AP_ID>BT050023</AP_ID><HOTSPOT_NAME>復興崗站</HOTSPOT_NAME><AREA>捷運站</AREA><ADDRESS>臺北市北投區中央北路三段53巷10號(1號月台近詢問處)</ADDRESS><HOTSPOT_TYPE>Taipei Free免費無線上網熱點(室內)</HOTSPOT_TYPE><LNG>121.485444</LNG><LAT>25.137474</LAT><STATUS>0</STATUS></hotspot><hotspot><AP_ID>BT050024</AP_ID><HOTSPOT_NAME>復興崗站</HOTSPOT_NAME><AREA>捷運站</AREA><ADDRESS>臺北市北投區中央北路三段53巷10號(2號月台近樓梯)</ADDRESS><HOTSPOT_TYPE>Taipei Free免費無線上網熱點(室內)</HOTSPOT_TYPE><LNG>121.485444</LNG><LAT>25.137474</LAT><STATUS>0</STATUS></hotspot><hotspot><AP_ID>BT050025</AP_ID><HOTSPOT_NAME>復興崗站</HOTSPOT_NAME><AREA>捷運站</AREA><ADDRESS>臺北市北投區中央北路三段53巷10號(天橋上)</ADDRESS><HOTSPOT_TYPE>Taipei Free免費無線上網熱點(室內)</HOTSPOT_TYPE><LNG>121.485444</LNG><LAT>25.137474</LAT><STATUS>0</STATUS></hotspot><hotspot><AP_ID>BT050026</AP_ID><HOTSPOT_NAME>忠義站</HOTSPOT_NAME><AREA>捷運站</AREA><ADDRESS>臺北市北投區中央北路四段301號(1號月台近詢問處)</ADDRESS><HOTSPOT_TYPE>Taipei Free免費無線上網熱點(室內)</HOTSPOT_TYPE><LNG>121.4734</LNG><LAT>25.13096</LAT><STATUS>0</STATUS></hotspot><hotspot><AP_ID>BT050027</AP_ID><HOTSPOT_NAME>忠義站</HOTSPOT_NAME><AREA>捷運站</AREA><ADDRESS>臺北市北投區中央北路四段301號(2號月台近樓梯)</ADDRESS><HOTSPOT_TYPE>Taipei Free免費無線上網熱點(室內)</HOTSPOT_TYPE><LNG>121.4734</LNG><LAT>25.13096</LAT><STATUS>0</STATUS></hotspot><hotspot><AP_ID>BT050028</AP_ID><HOTSPOT_NAME>忠義站</HOTSPOT_NAME><AREA>捷運站</AREA><ADDRESS>臺北市北投區中央北路四段301號(天橋上)</ADDRESS><HOTSPOT_TYPE>Taipei Free免費無線上網熱點(室內)</HOTSPOT_TYPE><LNG>121.4716</LNG><LAT>25.12974</LAT><STATUS>0</STATUS></hotspot><hotspot><AP_ID>BT050029</AP_ID><HOTSPOT_NAME>石牌站</HOTSPOT_NAME><AREA>捷運站</AREA><ADDRESS>臺北市北投區石牌路一段200號(1號出口全家上面)</ADDRESS><HOTSPOT_TYPE>Taipei Free免費無線上網熱點(室內)</HOTSPOT_TYPE><LNG>121.515559</LNG><LAT>25.114523</LAT><STATUS>0</STATUS></hotspot><hotspot><AP_ID>BT050030</AP_ID><HOTSPOT_NAME>石牌站</HOTSPOT_NAME><AREA>捷運站</AREA><ADDRESS>臺北市北投區石牌路一段200號(1樓電梯左後方上面)</ADDRESS><HOTSPOT_TYPE>Taipei Free免費無線上網熱點(室內)</HOTSPOT_TYPE><LNG>121.515559</LNG><LAT>25.114523</LAT><STATUS>0</STATUS></hotspot><hotspot><AP_ID>BT050031</AP_ID><HOTSPOT_NAME>石牌站</HOTSPOT_NAME><AREA>捷運站</AREA><ADDRESS>臺北市北投區石牌路一段200號(月台往北投方向座位區)</ADDRESS><HOTSPOT_TYPE>Taipei Free免費無線上網熱點(室內)</HOTSPOT_TYPE><LNG>121.515559</LNG><LAT>25.114523</LAT><STATUS>0</STATUS></hotspot><hotspot><AP_ID>BT050032</AP_ID><HOTSPOT_NAME>石牌站</HOTSPOT_NAME><AREA>捷運站</AREA><ADDRESS>臺北市北投區石牌路一段200號(月台往台北方向座位區)</ADDRESS><HOTSPOT_TYPE>Taipei Free免費無線上網熱點(室內)</HOTSPOT_TYPE><LNG>121.515559</LNG><LAT>25.114523</LAT><STATUS>0</STATUS></hotspot><hotspot><AP_ID>BT050033</AP_ID><HOTSPOT_NAME>北投站</HOTSPOT_NAME><AREA>捷運站</AREA><ADDRESS>臺北市北投區光明路1號(1號月台往台北方向底)</ADDRESS><HOTSPOT_TYPE>Taipei Free免費無線上網熱點(室內)</HOTSPOT_TYPE><LNG>121.498633</LNG><LAT>25.131841</LAT><STATUS>0</STATUS></hotspot><hotspot><AP_ID>BT050034</AP_ID><HOTSPOT_NAME>北投站</HOTSPOT_NAME><AREA>捷運站</AREA><ADDRESS>臺北市北投區光明路1號(1號月台往淡水方向底)</ADDRESS><HOTSPOT_TYPE>Taipei Free免費無線上網熱點(室內)</HOTSPOT_TYPE><LNG>121.498633</LNG><LAT>25.131841</LAT><STATUS>0</STATUS></hotspot><hotspot><AP_ID>BT050035</AP_ID><HOTSPOT_NAME>北投站</HOTSPOT_NAME><AREA>捷運站</AREA><ADDRESS>臺北市北投區光明路1號(1樓出口中間上方)</ADDRESS><HOTSPOT_TYPE>Taipei Free免費無線上網熱點(室內)</HOTSPOT_TYPE><LNG>121.498633</LNG><LAT>25.131841</LAT><STATUS>0</STATUS></hotspot><hotspot><AP_ID>BT050036</AP_ID><HOTSPOT_NAME>北投站</HOTSPOT_NAME><AREA>捷運站</AREA><ADDRESS>臺北市北投區光明路1號(4號月台往北投方向底)</ADDRESS><HOTSPOT_TYPE>Taipei Free免費無線上網熱點(室內)</HOTSPOT_TYPE><LNG>121.498633</LNG><LAT>25.131841</LAT><STATUS>0</STATUS></hotspot><hotspot><AP_ID>BT050037</AP_ID><HOTSPOT_NAME>北投站</HOTSPOT_NAME><AREA>捷運站</AREA><ADDRESS>臺北市北投區光明路1號(4號月台往台北方向底)</ADDRESS><HOTSPOT_TYPE>Taipei Free免費無線上網熱點(室內)</HOTSPOT_TYPE><LNG>121.498633</LNG><LAT>25.131841</LAT><STATUS>0</STATUS></hotspot><hotspot><AP_ID>BT050038</AP_ID><HOTSPOT_NAME>北投站</HOTSPOT_NAME><AREA>捷運站</AREA><ADDRESS>臺北市北投區光明路1號(站內樓梯往淡水方向前上方)</ADDRESS><HOTSPOT_TYPE>Taipei Free免費無線上網熱點(室內)</HOTSPOT_TYPE><LNG>121.498633</LNG><LAT>25.131841</LAT><STATUS>0</STATUS></hotspot><hotspot><AP_ID>BT050039</AP_ID><HOTSPOT_NAME>明德站</HOTSPOT_NAME><AREA>捷運站</AREA><ADDRESS>臺北市北投區明德路95號(往台北方向月台座位區)</ADDRESS><HOTSPOT_TYPE>Taipei Free免費無線上網熱點(室內)</HOTSPOT_TYPE><LNG>121.518848</LNG><LAT>25.109721</LAT><STATUS>0</STATUS></hotspot><hotspot><AP_ID>BT050040</AP_ID><HOTSPOT_NAME>明德站</HOTSPOT_NAME><AREA>捷運站</AREA><ADDRESS>臺北市北投區明德路95號(出口右上方)</ADDRESS><HOTSPOT_TYPE>Taipei Free免費無線上網熱點(室內)</HOTSPOT_TYPE><LNG>121.518848</LNG><LAT>25.109721</LAT><STATUS>0</STATUS></hotspot><hotspot><AP_ID>BT050041</AP_ID><HOTSPOT_NAME>明德站</HOTSPOT_NAME><AREA>捷運站</AREA><ADDRESS>臺北市北投區明德路95號(月台往北投方向座位區)</ADDRESS><HOTSPOT_TYPE>Taipei Free免費無線上網熱點(室內)</HOTSPOT_TYPE><LNG>121.518848</LNG><LAT>25.109721</LAT><STATUS>0</STATUS></hotspot><hotspot><AP_ID>BT050042</AP_ID><HOTSPOT_NAME>明德站</HOTSPOT_NAME><AREA>捷運站</AREA><ADDRESS>臺北市北投區明德路95號(1樓電梯左後方上面)</ADDRESS><HOTSPOT_TYPE>Taipei Free免費無線上網熱點(室內)</HOTSPOT_TYPE><LNG>121.518848</LNG><LAT>25.109721</LAT><STATUS>0</STATUS></hotspot><hotspot><AP_ID>BT050043</AP_ID><HOTSPOT_NAME>唭哩岸站</HOTSPOT_NAME><AREA>捷運站</AREA><ADDRESS>臺北市北投區東華街二段301號(1號出口外右上方)</ADDRESS><HOTSPOT_TYPE>Taipei Free免費無線上網熱點(室內)</HOTSPOT_TYPE><LNG>121.506252</LNG><LAT>25.120872</LAT><STATUS>0</STATUS></hotspot><hotspot><AP_ID>BT050044</AP_ID><HOTSPOT_NAME>唭哩岸站</HOTSPOT_NAME><AREA>捷運站</AREA><ADDRESS>臺北市北投區東華街二段301號(1樓電梯左後方上面)</ADDRESS><HOTSPOT_TYPE>Taipei Free免費無線上網熱點(室內)</HOTSPOT_TYPE><LNG>121.506252</LNG><LAT>25.120872</LAT><STATUS>0</STATUS></hotspot><hotspot><AP_ID>BT050045</AP_ID><HOTSPOT_NAME>唭哩岸站</HOTSPOT_NAME><AREA>捷運站</AREA><ADDRESS>臺北市北投區東華街二段301號(月台往北投方向座位區)</ADDRESS><HOTSPOT_TYPE>Taipei Free免費無線上網熱點(室內)</HOTSPOT_TYPE><LNG>121.506252</LNG><LAT>25.120872</LAT><STATUS>0</STATUS></hotspot><hotspot><AP_ID>BT050046</AP_ID><HOTSPOT_NAME>唭哩岸站</HOTSPOT_NAME><AREA>捷運站</AREA><ADDRESS>臺北市北投區東華街二段301號(月台往台北方向座位區)</ADDRESS><HOTSPOT_TYPE>Taipei Free免費無線上網熱點(室內)</HOTSPOT_TYPE><LNG>121.506252</LNG><LAT>25.120872</LAT><STATUS>0</STATUS></hotspot><hotspot><AP_ID>BT050047</AP_ID><HOTSPOT_NAME>捷運北投會館</HOTSPOT_NAME><AREA>為民服務單位</AREA><ADDRESS>臺北市北投區大業路527巷88號B1F(OK便利商店前)</ADDRESS><HOTSPOT_TYPE>Taipei Free免費無線上網熱點(室內)</HOTSPOT_TYPE><LNG>121.483955</LNG><LAT>25.135798</LAT><STATUS>0</STATUS></hotspot><hotspot><AP_ID>BT110001</AP_ID><HOTSPOT_NAME>捷運北投會館</HOTSPOT_NAME><AREA>為民服務單位</AREA><ADDRESS>臺北市北投區大業路527巷88號(210號房前天花板內)</ADDRESS><HOTSPOT_TYPE>Taipei Free免費無線上網熱點(室內)</HOTSPOT_TYPE><LNG>121.4835</LNG><LAT>25.13464</LAT><STATUS>0</STATUS></hotspot><hotspot><AP_ID>BT120001</AP_ID><HOTSPOT_NAME>北投區健康服務中心</HOTSPOT_NAME><AREA>健康服務中心</AREA><ADDRESS>臺北市北投區石牌路二段111號(1樓服務台旁上方)</ADDRESS><HOTSPOT_TYPE>Taipei Free免費無線上網熱點(室內)</HOTSPOT_TYPE><LNG>121.517118</LNG><LAT>25.118031</LAT><STATUS>0</STATUS></hotspot><hotspot><AP_ID>BT130011</AP_ID><HOTSPOT_NAME>北投運動中心</HOTSPOT_NAME><AREA>運動中心</AREA><ADDRESS>臺北市北投區石牌路一段39巷100號(B1大廳天花板)</ADDRESS><HOTSPOT_TYPE>Taipei Free免費無線上網熱點(室內)</HOTSPOT_TYPE><LNG>121.509</LNG><LAT>25.116</LAT><STATUS>0</STATUS></hotspot><hotspot><AP_ID>BT130012</AP_ID><HOTSPOT_NAME>北投運動中心</HOTSPOT_NAME><AREA>運動中心</AREA><ADDRESS>臺北市北投區石牌路一段39巷100號(1樓大廳天花板)</ADDRESS><HOTSPOT_TYPE>Taipei Free免費無線上網熱點(室內)</HOTSPOT_TYPE><LNG>121.509</LNG><LAT>25.116</LAT><STATUS>0</STATUS></hotspot><hotspot><AP_ID>BT130013</AP_ID><HOTSPOT_NAME>北投運動中心</HOTSPOT_NAME><AREA>運動中心</AREA><ADDRESS>臺北市北投區石牌路一段39巷100號(2樓大廳天花板)</ADDRESS><HOTSPOT_TYPE>Taipei Free免費無線上網熱點(室內)</HOTSPOT_TYPE><LNG>121.509</LNG><LAT>25.116</LAT><STATUS>0</STATUS></hotspot><hotspot><AP_ID>BT130014</AP_ID><HOTSPOT_NAME>北投運動中心</HOTSPOT_NAME><AREA>運動中心</AREA><ADDRESS>臺北市北投區石牌路一段39巷100號(3樓大廳天花板)</ADDRESS><HOTSPOT_TYPE>Taipei Free免費無線上網熱點(室內)</HOTSPOT_TYPE><LNG>121.509</LNG><LAT>25.116</LAT><STATUS>0</STATUS></hotspot><hotspot><AP_ID>BT130015</AP_ID><HOTSPOT_NAME>北投運動中心</HOTSPOT_NAME><AREA>運動中心</AREA><ADDRESS>臺北市北投區石牌路一段39巷100號(5樓大廳天花板)</ADDRESS><HOTSPOT_TYPE>Taipei Free免費無線上網熱點(室內)</HOTSPOT_TYPE><LNG>121.509</LNG><LAT>25.116</LAT><STATUS>0</STATUS></hotspot><hotspot><AP_ID>BT160005</AP_ID><HOTSPOT_NAME>凱達格蘭文化館</HOTSPOT_NAME><AREA>文化場館</AREA><ADDRESS>臺北市北投區中山路3-1號(1樓服務台)</ADDRESS><HOTSPOT_TYPE>Taipei Free免費無線上網熱點(室內)</HOTSPOT_TYPE><LNG>121.505788</LNG><LAT>25.137066</LAT><STATUS>0</STATUS></hotspot><hotspot><AP_ID>BT160006</AP_ID><HOTSPOT_NAME>凱達格蘭文化館</HOTSPOT_NAME><AREA>文化場館</AREA><ADDRESS>臺北市北投區中山路3-1號(2樓會場)</ADDRESS><HOTSPOT_TYPE>Taipei Free免費無線上網熱點(室內)</HOTSPOT_TYPE><LNG>121.505775</LNG><LAT>25.137071</LAT><STATUS>0</STATUS></hotspot><hotspot><AP_ID>BT160007</AP_ID><HOTSPOT_NAME>凱達格蘭文化館</HOTSPOT_NAME><AREA>文化場館</AREA><ADDRESS>臺北市北投區中山路3-1號(3樓會場)</ADDRESS><HOTSPOT_TYPE>Taipei Free免費無線上網熱點(室內)</HOTSPOT_TYPE><LNG>121.505802</LNG><LAT>25.137066</LAT><STATUS>0</STATUS></hotspot><hotspot><AP_ID>BT160008</AP_ID><HOTSPOT_NAME>凱達格蘭文化館</HOTSPOT_NAME><AREA>文化場館</AREA><ADDRESS>臺北市北投區中山路3-1號(4樓會議廳)</ADDRESS><HOTSPOT_TYPE>Taipei Free免費無線上網熱點(室內)</HOTSPOT_TYPE><LNG>121.505793</LNG><LAT>25.137075</LAT><STATUS>0</STATUS></hotspot><hotspot><AP_ID>BT160009</AP_ID><HOTSPOT_NAME>關渡自然公園教育中心</HOTSPOT_NAME><AREA>文化場館</AREA><ADDRESS>臺北市北投區關渡路55號(一樓大廳服務台旁圓柱上方)</ADDRESS><HOTSPOT_TYPE>Taipei Free免費無線上網熱點(室內)</HOTSPOT_TYPE><LNG>121.471571</LNG><LAT>25.119378</LAT><STATUS>0</STATUS></hotspot><hotspot><AP_ID>BT160010</AP_ID><HOTSPOT_NAME>關渡自然公園教育中心</HOTSPOT_NAME><AREA>文化場館</AREA><ADDRESS>臺北市北投區關渡路55號(二樓咖啡廳)</ADDRESS><HOTSPOT_TYPE>Taipei Free免費無線上網熱點(室內)</HOTSPOT_TYPE><LNG>121.471474</LNG><LAT>25.119383</LAT><STATUS>0</STATUS></hotspot><hotspot><AP_ID>BT160011</AP_ID><HOTSPOT_NAME>關渡自然公園教育中心</HOTSPOT_NAME><AREA>文化場館</AREA><ADDRESS>臺北市北投區關渡路55號(二樓大廳)</ADDRESS><HOTSPOT_TYPE>Taipei Free免費無線上網熱點(室內)</HOTSPOT_TYPE><LNG>121.471646</LNG><LAT>25.119364</LAT><STATUS>0</STATUS></hotspot><hotspot><AP_ID>BT180001</AP_ID><HOTSPOT_NAME>北投垃圾焚化廠</HOTSPOT_NAME><AREA>垃圾焚化廠</AREA><ADDRESS>臺北市北投區洲美街271號(1F餐飲中心門口)</ADDRESS><HOTSPOT_TYPE>Taipei Free免費無線上網熱點(室內)</HOTSPOT_TYPE><LNG>121.499237</LNG><LAT>25.107613</LAT><STATUS>0</STATUS></hotspot><hotspot><AP_ID>BT180002</AP_ID><HOTSPOT_NAME>北投垃圾焚化廠</HOTSPOT_NAME><AREA>垃圾焚化廠</AREA><ADDRESS>臺北市北投區洲美街271號(2FK書中心)</ADDRESS><HOTSPOT_TYPE>Taipei Free免費無線上網熱點(室內)</HOTSPOT_TYPE><LNG>121.499237</LNG><LAT>25.107613</LAT><STATUS>0</STATUS></hotspot><hotspot><AP_ID>BT180003</AP_ID><HOTSPOT_NAME>北投垃圾焚化廠</HOTSPOT_NAME><AREA>垃圾焚化廠</AREA><ADDRESS>臺北市北投區洲美街271號(2F閱覽室樓梯口正上方)</ADDRESS><HOTSPOT_TYPE>Taipei Free免費無線上網熱點(室內)</HOTSPOT_TYPE><LNG>121.499237</LNG><LAT>25.107613</LAT><STATUS>0</STATUS></hotspot><hotspot><AP_ID>BT220001</AP_ID><HOTSPOT_NAME>捷運旅客服務中心</HOTSPOT_NAME><AREA>為民服務單位</AREA><ADDRESS>臺北市北投區中央北路三段185號(大門口大廳中間天花板內)</ADDRESS><HOTSPOT_TYPE>Taipei Free免費無線上網熱點(室內)</HOTSPOT_TYPE><LNG>121.48276</LNG><LAT>25.137258</LAT><STATUS>0</STATUS></hotspot><hotspot><AP_ID>BT220002</AP_ID><HOTSPOT_NAME>關渡水岸公園自行車租借站</HOTSPOT_NAME><AREA>自行車租借站</AREA><ADDRESS>臺北市北投區知行路，關渡宮北側，關渡碼頭旁(租借站內櫃台桌上)</ADDRESS><HOTSPOT_TYPE>Taipei Free免費無線上網熱點(室內)</HOTSPOT_TYPE><LNG>121.463461</LNG><LAT>25.116998</LAT><STATUS>0</STATUS></hotspot><hotspot><AP_ID>BT220003</AP_ID><HOTSPOT_NAME>永明工作站</HOTSPOT_NAME><AREA>地政事務所</AREA><ADDRESS>臺北市北投區石牌路二段115號10樓(辦公室內的鐵櫃上面)</ADDRESS><HOTSPOT_TYPE>Taipei Free免費無線上網熱點(室內)</HOTSPOT_TYPE><LNG>121.517176</LNG><LAT>25.118068</LAT><STATUS>0</STATUS></hotspot><hotspot><AP_ID>BT220004</AP_ID><HOTSPOT_NAME>北市科工務所</HOTSPOT_NAME><AREA>新建工程處</AREA><ADDRESS>臺北市北投區文林北路227號旁(工務所入口左側桌上)</ADDRESS><HOTSPOT_TYPE>Taipei Free免費無線上網熱點(室內)</HOTSPOT_TYPE><LNG>121.513</LNG><LAT>25.10875</LAT><STATUS>0</STATUS></hotspot><hotspot><AP_ID>BT220007</AP_ID><HOTSPOT_NAME>北區工務所</HOTSPOT_NAME><AREA>新建工程處</AREA><ADDRESS>臺北市北投區致遠三路158號5樓(工務所交換機上)</ADDRESS><HOTSPOT_TYPE>Taipei Free免費無線上網熱點(室內)</HOTSPOT_TYPE><LNG>121.510279</LNG><LAT>25.121768</LAT><STATUS>0</STATUS></hotspot><hotspot><AP_ID>BT220008</AP_ID><HOTSPOT_NAME>北投就業服務站</HOTSPOT_NAME><AREA>其他</AREA><ADDRESS>臺北市北投區新市街30號5樓(服務櫃檯右側)</ADDRESS><HOTSPOT_TYPE>Taipei Free免費無線上網熱點(室內)</HOTSPOT_TYPE><LNG>121.503</LNG><LAT>25.132426</LAT><STATUS>0</STATUS></hotspot><hotspot><AP_ID>BT220009</AP_ID><HOTSPOT_NAME>北投分處</HOTSPOT_NAME><AREA>稅捐稽徵處</AREA><ADDRESS>臺北市北投區新市街30號3樓(北投分處辦公區後方櫃上)</ADDRESS><HOTSPOT_TYPE>Taipei Free免費無線上網熱點(室內)</HOTSPOT_TYPE><LNG>121.503</LNG><LAT>25.132426</LAT><STATUS>0</STATUS></hotspot><hotspot><AP_ID>BT220010</AP_ID><HOTSPOT_NAME>浩然敬老院-致和樓</HOTSPOT_NAME><AREA>為民服務單位</AREA><ADDRESS>臺北市北投區知行路75號(1F行管組外走廊)</ADDRESS><HOTSPOT_TYPE>Taipei Free免費無線上網熱點(室內)</HOTSPOT_TYPE><LNG>121.4676</LNG><LAT>25.11838</LAT><STATUS>0</STATUS></hotspot><hotspot><AP_ID>BT220011</AP_ID><HOTSPOT_NAME>浩然敬老院-致和樓</HOTSPOT_NAME><AREA>為民服務單位</AREA><ADDRESS>臺北市北投區知行路75號(1F大廳)</ADDRESS><HOTSPOT_TYPE>Taipei Free免費無線上網熱點(室內)</HOTSPOT_TYPE><LNG>121.4675</LNG><LAT>25.11838</LAT><STATUS>0</STATUS></hotspot><hotspot><AP_ID>BT220015</AP_ID><HOTSPOT_NAME>浩然敬老院-致和樓</HOTSPOT_NAME><AREA>為民服務單位</AREA><ADDRESS>臺北市北投區知行路75號(2F交誼廳)</ADDRESS><HOTSPOT_TYPE>Taipei Free免費無線上網熱點(室內)</HOTSPOT_TYPE><LNG>121.4676</LNG><LAT>25.11838</LAT><STATUS>0</STATUS></hotspot><hotspot><AP_ID>BT220025</AP_ID><HOTSPOT_NAME>浩然敬老院-致中樓</HOTSPOT_NAME><AREA>為民服務單位</AREA><ADDRESS>臺北市北投區知行路75號(1F陶藝教室內)</ADDRESS><HOTSPOT_TYPE>Taipei Free免費無線上網熱點(室內)</HOTSPOT_TYPE><LNG>121.4678</LNG><LAT>25.11877</LAT><STATUS>0</STATUS></hotspot><hotspot><AP_ID>BT220038</AP_ID><HOTSPOT_NAME>陽明山靈骨塔</HOTSPOT_NAME><AREA>殯葬管理處</AREA><ADDRESS>臺北市北投區泉源路220號(陽明山靈骨塔一樓入口左方格子裝潢上)</ADDRESS><HOTSPOT_TYPE>Taipei Free免費無線上網熱點(室內)</HOTSPOT_TYPE><LNG>121.527473</LNG><LAT>25.14203</LAT><STATUS>0</STATUS></hotspot><hotspot><AP_ID>BT220039</AP_ID><HOTSPOT_NAME>陽明山臻愛樓</HOTSPOT_NAME><AREA>殯葬管理處</AREA><ADDRESS>臺北市北投區泉源路220號(陽明山臻愛樓一樓中央天花板上)</ADDRESS><HOTSPOT_TYPE>Taipei Free免費無線上網熱點(室內)</HOTSPOT_TYPE><LNG>121.527473</LNG><LAT>25.14203</LAT><STATUS>0</STATUS></hotspot><hotspot><AP_ID>BT220040</AP_ID><HOTSPOT_NAME>陽明山臻善樓</HOTSPOT_NAME><AREA>殯葬管理處</AREA><ADDRESS>臺北市北投區泉源路220號(陽明山臻善樓一樓中央天花板上)</ADDRESS><HOTSPOT_TYPE>Taipei Free免費無線上網熱點(室內)</HOTSPOT_TYPE><LNG>121.527473</LNG><LAT>25.14203</LAT><STATUS>0</STATUS></hotspot><hotspot><AP_ID>BT230001</AP_ID><HOTSPOT_NAME>信義區永春市場</HOTSPOT_NAME><AREA>市集</AREA><ADDRESS>臺北市北投區新市街30號(自治會門外上方)</ADDRESS><HOTSPOT_TYPE>Taipei Free免費無線上網熱點(室內)</HOTSPOT_TYPE><LNG>121.503</LNG><LAT>25.132426</LAT><STATUS>0</STATUS></hotspot><hotspot><AP_ID>BT230002</AP_ID><HOTSPOT_NAME>信義區永春市場</HOTSPOT_NAME><AREA>市集</AREA><ADDRESS>臺北市北投區新市街30號(自治會門外上方空調)</ADDRESS><HOTSPOT_TYPE>Taipei Free免費無線上網熱點(室內)</HOTSPOT_TYPE><LNG>121.503</LNG><LAT>25.132426</LAT><STATUS>0</STATUS></hotspot><hotspot><AP_ID>BT240002</AP_ID><HOTSPOT_NAME>忠義停車場</HOTSPOT_NAME><AREA>捷運停車場</AREA><ADDRESS>臺北市北投區中央北路四段301號(收費票亭牆上冷氣左側)</ADDRESS><HOTSPOT_TYPE>Taipei Free免費無線上網熱點(室內)</HOTSPOT_TYPE><LNG>121.4716</LNG><LAT>25.12974</LAT><STATUS>0</STATUS></hotspot><hotspot><AP_ID>BT240004</AP_ID><HOTSPOT_NAME>捷運石牌站轉乘停車場</HOTSPOT_NAME><AREA>捷運停車場</AREA><ADDRESS>臺北市北投區石牌路一段200號(收費票亭牆上)</ADDRESS><HOTSPOT_TYPE>Taipei Free免費無線上網熱點(室內)</HOTSPOT_TYPE><LNG>121.5142</LNG><LAT>25.11641</LAT><STATUS>0</STATUS></hotspot><hotspot><AP_ID>BT240005</AP_ID><HOTSPOT_NAME>捷運北投站轉乘停車場</HOTSPOT_NAME><AREA>捷運停車場</AREA><ADDRESS>臺北市北投區光明路1號(收費票亭牆上)</ADDRESS><HOTSPOT_TYPE>Taipei Free免費無線上網熱點(室內)</HOTSPOT_TYPE><LNG>121.4996</LNG><LAT>25.13053</LAT><STATUS>0</STATUS></hotspot><hotspot><AP_ID>BT240006</AP_ID><HOTSPOT_NAME>捷運唭哩岸站轉乘停車場</HOTSPOT_NAME><AREA>捷運停車場</AREA><ADDRESS>臺北市北投區東華街二段301號(收費票亭牆上)</ADDRESS><HOTSPOT_TYPE>Taipei Free免費無線上網熱點(室內)</HOTSPOT_TYPE><LNG>121.5051</LNG><LAT>25.12114</LAT><STATUS>0</STATUS></hotspot><hotspot><AP_ID>BT240007</AP_ID><HOTSPOT_NAME>大業立體停車場(機械)</HOTSPOT_NAME><AREA>公有停車場</AREA><ADDRESS>臺北市北投區大業路745號(螢幕櫃後方)</ADDRESS><HOTSPOT_TYPE>Taipei Free免費無線上網熱點(室內)</HOTSPOT_TYPE><LNG>121.502992</LNG><LAT>25.13761</LAT><STATUS>0</STATUS></hotspot><hotspot><AP_ID>BT240008</AP_ID><HOTSPOT_NAME>大豐公園地下停車場</HOTSPOT_NAME><AREA>公有停車場</AREA><ADDRESS>臺北市北投區大興街145號B1F(辦公室內)</ADDRESS><HOTSPOT_TYPE>Taipei Free免費無線上網熱點(室內)</HOTSPOT_TYPE><LNG>121.504236</LNG><LAT>25.131107</LAT><STATUS>0</STATUS></hotspot><hotspot><AP_ID>BT240009</AP_ID><HOTSPOT_NAME>振興公園地下停車場</HOTSPOT_NAME><AREA>公有停車場</AREA><ADDRESS>臺北市北投區天母西路112號B1F(管理室小茶几上面)</ADDRESS><HOTSPOT_TYPE>Taipei Free免費無線上網熱點(室內)</HOTSPOT_TYPE><LNG>121.52324</LNG><LAT>25.118792</LAT><STATUS>0</STATUS></hotspot><hotspot><AP_ID>BT240010</AP_ID><HOTSPOT_NAME>七星公園地下停車場</HOTSPOT_NAME><AREA>公有停車場</AREA><ADDRESS>臺北市北投區光明路225號B1F(辦公桌上)</ADDRESS><HOTSPOT_TYPE>Taipei Free免費無線上網熱點(室內)</HOTSPOT_TYPE><LNG>121.5023</LNG><LAT>25.13664</LAT><STATUS>0</STATUS></hotspot><hotspot><AP_ID>BT240012</AP_ID><HOTSPOT_NAME>石牌國小地下停車場</HOTSPOT_NAME><AREA>公有停車場</AREA><ADDRESS>臺北市北投區致遠二路80號B1F(管理室內)</ADDRESS><HOTSPOT_TYPE>Taipei Free免費無線上網熱點(室內)</HOTSPOT_TYPE><LNG>121.511757</LNG><LAT>25.115729</LAT><STATUS>0</STATUS></hotspot><hotspot><AP_ID>BT240013</AP_ID><HOTSPOT_NAME>陽明山立體停車場</HOTSPOT_NAME><AREA>公有停車場</AREA><ADDRESS>臺北市北投區湖山路陽明山公園大門口旁(1F管理室外)</ADDRESS><HOTSPOT_TYPE>Taipei Free免費無線上網熱點(室內)</HOTSPOT_TYPE><LNG>121.539611</LNG><LAT>25.156751</LAT><STATUS>0</STATUS></hotspot><hotspot><AP_ID>BT250001</AP_ID><HOTSPOT_NAME>桃源國中</HOTSPOT_NAME><AREA>各級學校</AREA><ADDRESS>臺北市北投區中央北路四段48號(2F教務處外走廊天花板上方)</ADDRESS><HOTSPOT_TYPE>Taipei Free免費無線上網熱點(室內)</HOTSPOT_TYPE><LNG>121.477321</LNG><LAT>25.134744</LAT><STATUS>0</STATUS></hotspot><hotspot><AP_ID>BT250002</AP_ID><HOTSPOT_NAME>關渡國小</HOTSPOT_NAME><AREA>各級學校</AREA><ADDRESS>臺北市北投區中央北路四段581號(2F動物救援隊右邊櫃子上方)</ADDRESS><HOTSPOT_TYPE>Taipei Free免費無線上網熱點(室內)</HOTSPOT_TYPE><LNG>121.466845</LNG><LAT>25.126849</LAT><STATUS>0</STATUS></hotspot><hotspot><AP_ID>BT250003</AP_ID><HOTSPOT_NAME>中正高中</HOTSPOT_NAME><AREA>各級學校</AREA><ADDRESS>臺北市北投區文林北路77號(美齡樓2樓網管機房冷氣旁)</ADDRESS><HOTSPOT_TYPE>Taipei Free免費無線上網熱點(室內)</HOTSPOT_TYPE><LNG>121.516608</LNG><LAT>25.104412</LAT><STATUS>0</STATUS></hotspot><hotspot><AP_ID>BT290001</AP_ID><HOTSPOT_NAME>北投溫泉博物館</HOTSPOT_NAME><AREA>文化場館</AREA><ADDRESS>臺北市北投區中山路2號(1F樓梯往H區走道天花板上)</ADDRESS><HOTSPOT_TYPE>Taipei Free免費無線上網熱點(室內)</HOTSPOT_TYPE><LNG>121.507149</LNG><LAT>25.136692</LAT><STATUS>0</STATUS></hotspot><hotspot><AP_ID>BT290002</AP_ID><HOTSPOT_NAME>北投溫泉博物館</HOTSPOT_NAME><AREA>文化場館</AREA><ADDRESS>臺北市北投區中山路2號(1FB區走道造景天花板上)</ADDRESS><HOTSPOT_TYPE>Taipei Free免費無線上網熱點(室內)</HOTSPOT_TYPE><LNG>121.507149</LNG><LAT>25.136692</LAT><STATUS>0</STATUS></hotspot><hotspot><AP_ID>BT290003</AP_ID><HOTSPOT_NAME>北投溫泉博物館</HOTSPOT_NAME><AREA>文化場館</AREA><ADDRESS>臺北市北投區中山路2號(2F大門入口處天花板上)</ADDRESS><HOTSPOT_TYPE>Taipei Free免費無線上網熱點(室內)</HOTSPOT_TYPE><LNG>121.507149</LNG><LAT>25.136692</LAT><STATUS>0</STATUS></hotspot><hotspot><AP_ID>BT290004</AP_ID><HOTSPOT_NAME>北投溫泉博物館</HOTSPOT_NAME><AREA>文化場館</AREA><ADDRESS>臺北市北投區中山路2號(2FE區戶外空間外牆上)</ADDRESS><HOTSPOT_TYPE>Taipei Free免費無線上網熱點(室內)</HOTSPOT_TYPE><LNG>121.507149</LNG><LAT>25.136692</LAT><STATUS>0</STATUS></hotspot><hotspot><AP_ID>BT300001</AP_ID><HOTSPOT_NAME>北投文化區民活動中心</HOTSPOT_NAME><AREA>區民活動中心</AREA><ADDRESS>臺北市北投區文化三路3號4,5樓(中央天花板上)</ADDRESS><HOTSPOT_TYPE>Taipei Free免費無線上網熱點(室內)</HOTSPOT_TYPE><LNG>121.496231</LNG><LAT>25.136692</LAT><STATUS>0</STATUS></hotspot><hotspot><AP_ID>BT300002</AP_ID><HOTSPOT_NAME>北投關渡區民活動中心</HOTSPOT_NAME><AREA>區民活動中心</AREA><ADDRESS>臺北市北投區大度路3段301巷1號(進去右側上方天花板上)</ADDRESS><HOTSPOT_TYPE>Taipei Free免費無線上網熱點(室內)</HOTSPOT_TYPE><LNG>121.466321</LNG><LAT>25.12311</LAT><STATUS>0</STATUS></hotspot><hotspot><AP_ID>DA020001</AP_ID><HOTSPOT_NAME>大安區行政中心</HOTSPOT_NAME><AREA>區行政中心</AREA><ADDRESS>臺北市大安區新生南路二段86號1樓(9號服務台上方)</ADDRESS><HOTSPOT_TYPE>Taipei Free免費無線上網熱點(室內)</HOTSPOT_TYPE><LNG>121.534511</LNG><LAT>25.026421</LAT><STATUS>0</STATUS></hotspot><hotspot><AP_ID>DA020002</AP_ID><HOTSPOT_NAME>大安區行政中心</HOTSPOT_NAME><AREA>區行政中心</AREA><ADDRESS>臺北市大安區新生南路二段86號2樓(電梯出來喇叭與電燈中間)</ADDRESS><HOTSPOT_TYPE>Taipei Free免費無線上網熱點(室內)</HOTSPOT_TYPE><LNG>121.534511</LNG><LAT>25.026421</LAT><STATUS>0</STATUS></hotspot><hotspot><AP_ID>DA020003</AP_ID><HOTSPOT_NAME>大安區行政中心</HOTSPOT_NAME><AREA>區行政中心</AREA><ADDRESS>臺北市大安區新生南路二段86號3樓(門口進入圓型座位區上方)</ADDRESS><HOTSPOT_TYPE>Taipei Free免費無線上網熱點(室內)</HOTSPOT_TYPE><LNG>121.534511</LNG><LAT>25.026421</LAT><STATUS>0</STATUS></hotspot><hotspot><AP_ID>DA020004</AP_ID><HOTSPOT_NAME>大安區行政中心</HOTSPOT_NAME><AREA>區行政中心</AREA><ADDRESS>臺北市大安區新生南路二段86號8樓(進門民眾休息區第一排座位上方)</ADDRESS><HOTSPOT_TYPE>Taipei Free免費無線上網熱點(室內)</HOTSPOT_TYPE><LNG>121.534511</LNG><LAT>25.026421</LAT><STATUS>0</STATUS></hotspot><hotspot><AP_ID>DA020005</AP_ID><HOTSPOT_NAME>大安區行政中心</HOTSPOT_NAME><AREA>區行政中心</AREA><ADDRESS>臺北市大安區新生南路二段86號9樓(門口進入右邊第一個通風口旁)</ADDRESS><HOTSPOT_TYPE>Taipei Free免費無線上網熱點(室內)</HOTSPOT_TYPE><LNG>121.534511</LNG><LAT>25.026421</LAT><STATUS>0</STATUS></hotspot><hotspot><AP_ID>DA030001</AP_ID><HOTSPOT_NAME>龍安民眾閱覽室</HOTSPOT_NAME><AREA>閱覽室</AREA><ADDRESS>臺北市大安區永康街60號2樓(期刊區上方)</ADDRESS><HOTSPOT_TYPE>Taipei Free免費無線上網熱點(室內)</HOTSPOT_TYPE><LNG>121.529601</LNG><LAT>25.028559</LAT><STATUS>0</STATUS></hotspot><hotspot><AP_ID>DA030002</AP_ID><HOTSPOT_NAME>龍安民眾閱覽室</HOTSPOT_NAME><AREA>閱覽室</AREA><ADDRESS>臺北市大安區永康街60號3樓(自修室中央上方處)</ADDRESS><HOTSPOT_TYPE>Taipei Free免費無線上網熱點(室內)</HOTSPOT_TYPE><LNG>121.529601</LNG><LAT>25.028559</LAT><STATUS>0</STATUS></hotspot><hotspot><AP_ID>DA030003</AP_ID><HOTSPOT_NAME>道藩分館</HOTSPOT_NAME><AREA>圖書館</AREA><ADDRESS>臺北市大安區辛亥路三段11號3樓(閱覽區後方靠書庫區上方天花板)</ADDRESS><HOTSPOT_TYPE>Taipei Free免費無線上網熱點(室內)</HOTSPOT_TYPE><LNG>121.544049</LNG><LAT>25.021577</LAT><STATUS>0</STATUS></hotspot><hotspot><AP_ID>DA030004</AP_ID><HOTSPOT_NAME>道藩分館</HOTSPOT_NAME><AREA>圖書館</AREA><ADDRESS>臺北市大安區辛亥路三段11號3樓(綜合服務台前方資訊檢索區吊牌旁)</ADDRESS><HOTSPOT_TYPE>Taipei Free免費無線上網熱點(室內)</HOTSPOT_TYPE><LNG>121.544049</LNG><LAT>25.021577</LAT><STATUS>0</STATUS></hotspot><hotspot><AP_ID>DA030005</AP_ID><HOTSPOT_NAME>大安分館</HOTSPOT_NAME><AREA>圖書館</AREA><ADDRESS>臺北市大安區辛亥路三段223號4樓(期刊室之中心位置上方，臨中央柱子)</ADDRESS><HOTSPOT_TYPE>Taipei Free免費無線上網熱點(室內)</HOTSPOT_TYPE><LNG>121.550788</LNG><LAT>25.016022</LAT><STATUS>0</STATUS></hotspot><hotspot><AP_ID>DA030006</AP_ID><HOTSPOT_NAME>大安分館</HOTSPOT_NAME><AREA>圖書館</AREA><ADDRESS>臺北市大安區辛亥路三段223號4樓(閱覽室前段中間位置上方)</ADDRESS><HOTSPOT_TYPE>Taipei Free免費無線上網熱點(室內)</HOTSPOT_TYPE><LNG>121.550788</LNG><LAT>25.016022</LAT><STATUS>0</STATUS></hotspot><hotspot><AP_ID>DA030007</AP_ID><HOTSPOT_NAME>大安分館</HOTSPOT_NAME><AREA>圖書館</AREA><ADDRESS>臺北市大安區辛亥路三段223號5樓(自修室之中心位置)</ADDRESS><HOTSPOT_TYPE>Taipei Free免費無線上網熱點(室內)</HOTSPOT_TYPE><LNG>121.550788</LNG><LAT>25.016022</LAT><STATUS>0</STATUS></hotspot><hotspot><AP_ID>DA030009</AP_ID><HOTSPOT_NAME>成功民眾閱覽室</HOTSPOT_NAME><AREA>閱覽室</AREA><ADDRESS>臺北市大安區和平東路二段311巷29號4樓(自修區靠儲藏室之牆角)</ADDRESS><HOTSPOT_TYPE>Taipei Free免費無線上網熱點(室內)</HOTSPOT_TYPE><LNG>121.545211</LNG><LAT>25.025442</LAT><STATUS>0</STATUS></hotspot><hotspot><AP_ID>DA030010</AP_ID><HOTSPOT_NAME>延吉民眾閱覽室</HOTSPOT_NAME><AREA>閱覽室</AREA><ADDRESS>臺北市大安區延吉街236巷17號3樓(過期報紙區、書庫區與網路查詢區之橫樑上)</ADDRESS><HOTSPOT_TYPE>Taipei Free免費無線上網熱點(室內)</HOTSPOT_TYPE><LNG>121.555021</LNG><LAT>25.036117</LAT><STATUS>0</STATUS></hotspot><hotspot><AP_ID>DA030011</AP_ID><HOTSPOT_NAME>延吉民眾閱覽室</HOTSPOT_NAME><AREA>閱覽室</AREA><ADDRESS>臺北市大安區延吉街236巷17號4樓(自修區由大門入口右前方之樑上)</ADDRESS><HOTSPOT_TYPE>Taipei Free免費無線上網熱點(室內)</HOTSPOT_TYPE><LNG>121.555021</LNG><LAT>25.036117</LAT><STATUS>0</STATUS></hotspot><hotspot><AP_ID>DA030012</AP_ID><HOTSPOT_NAME>總館</HOTSPOT_NAME><AREA>圖書館</AREA><ADDRESS>臺北市大安區建國南路二段125號10樓(會議室(一)門口與通往館史室、貴賓室之走道轉角處上方)</ADDRESS><HOTSPOT_TYPE>Taipei Free免費無線上網熱點(室內)</HOTSPOT_TYPE><LNG>121.538369</LNG><LAT>25.029152</LAT><STATUS>0</STATUS></hotspot><hotspot><AP_ID>DA030013</AP_ID><HOTSPOT_NAME>總館</HOTSPOT_NAME><AREA>圖書館</AREA><ADDRESS>臺北市大安區建國南路二段125號11樓(往研習教室之走道轉角處上方位置)</ADDRESS><HOTSPOT_TYPE>Taipei Free免費無線上網熱點(室內)</HOTSPOT_TYPE><LNG>121.538369</LNG><LAT>25.029152</LAT><STATUS>0</STATUS></hotspot><hotspot><AP_ID>DA030014</AP_ID><HOTSPOT_NAME>總館</HOTSPOT_NAME><AREA>圖書館</AREA><ADDRESS>臺北市大安區建國南路二段125號1樓(大門入口處右前方之樑柱上方位置)</ADDRESS><HOTSPOT_TYPE>Taipei Free免費無線上網熱點(室內)</HOTSPOT_TYPE><LNG>121.538369</LNG><LAT>25.029152</LAT><STATUS>0</STATUS></hotspot><hotspot><AP_ID>DA030015</AP_ID><HOTSPOT_NAME>總館</HOTSPOT_NAME><AREA>圖書館</AREA><ADDRESS>臺北市大安區建國南路二段125號2樓(期刊室內後方往盥洗室之樑柱上)</ADDRESS><HOTSPOT_TYPE>Taipei Free免費無線上網熱點(室內)</HOTSPOT_TYPE><LNG>121.538369</LNG><LAT>25.029152</LAT><STATUS>0</STATUS></hotspot><hotspot><AP_ID>DA030016</AP_ID><HOTSPOT_NAME>總館</HOTSPOT_NAME><AREA>圖書館</AREA><ADDRESS>臺北市大安區建國南路二段125號3樓(諮詢服務課內之自修區後方之樑柱上)</ADDRESS><HOTSPOT_TYPE>Taipei Free免費無線上網熱點(室內)</HOTSPOT_TYPE><LNG>121.538369</LNG><LAT>25.029152</LAT><STATUS>0</STATUS></hotspot><hotspot><AP_ID>DA030017</AP_ID><HOTSPOT_NAME>總館</HOTSPOT_NAME><AREA>圖書館</AREA><ADDRESS>臺北市大安區建國南路二段125號4樓(閱覽室(一)內之自修區後方之樑柱上)</ADDRESS><HOTSPOT_TYPE>Taipei Free免費無線上網熱點(室內)</HOTSPOT_TYPE><LNG>121.538369</LNG><LAT>25.029152</LAT><STATUS>0</STATUS></hotspot><hotspot><AP_ID>DA030018</AP_ID><HOTSPOT_NAME>總館</HOTSPOT_NAME><AREA>圖書館</AREA><ADDRESS>臺北市大安區建國南路二段125號5樓(閱覽室(二)內之自修區後方之樑柱上)</ADDRESS><HOTSPOT_TYPE>Taipei Free免費無線上網熱點(室內)</HOTSPOT_TYPE><LNG>121.538369</LNG><LAT>25.029152</LAT><STATUS>0</STATUS></hotspot><hotspot><AP_ID>DA030019</AP_ID><HOTSPOT_NAME>總館</HOTSPOT_NAME><AREA>圖書館</AREA><ADDRESS>臺北市大安區建國南路二段125號6樓(閱覽室(三)內之自修區後方之樑柱上)</ADDRESS><HOTSPOT_TYPE>Taipei Free免費無線上網熱點(室內)</HOTSPOT_TYPE><LNG>121.538369</LNG><LAT>25.029152</LAT><STATUS>0</STATUS></hotspot><hotspot><AP_ID>DA030020</AP_ID><HOTSPOT_NAME>總館</HOTSPOT_NAME><AREA>圖書館</AREA><ADDRESS>臺北市大安區建國南路二段125號9樓(原住民資料區中央上方)</ADDRESS><HOTSPOT_TYPE>Taipei Free免費無線上網熱點(室內)</HOTSPOT_TYPE><LNG>121.538369</LNG><LAT>25.029152</LAT><STATUS>0</STATUS></hotspot><hotspot><AP_ID>DA030021</AP_ID><HOTSPOT_NAME>總館</HOTSPOT_NAME><AREA>圖書館</AREA><ADDRESS>臺北市大安區建國南路二段125號B1(兒童圖書區內指示牌前方造景樑柱上)</ADDRESS><HOTSPOT_TYPE>Taipei Free免費無線上網熱點(室內)</HOTSPOT_TYPE><LNG>121.538369</LNG><LAT>25.029152</LAT><STATUS>0</STATUS></hotspot><hotspot><AP_ID>DA030022</AP_ID><HOTSPOT_NAME>總館</HOTSPOT_NAME><AREA>圖書館</AREA><ADDRESS>臺北市大安區建國南路二段125號B2(服務檯後方之天花板上)</ADDRESS><HOTSPOT_TYPE>Taipei Free免費無線上網熱點(室內)</HOTSPOT_TYPE><LNG>121.538369</LNG><LAT>25.029152</LAT><STATUS>0</STATUS></hotspot><hotspot><AP_ID>DA030023</AP_ID><HOTSPOT_NAME>總館</HOTSPOT_NAME><AREA>圖書館</AREA><ADDRESS>臺北市大安區建國南路二段125號(8F資訊視聽走道造型橫木上)</ADDRESS><HOTSPOT_TYPE>Taipei Free免費無線上網熱點(室內)</HOTSPOT_TYPE><LNG>121.538369</LNG><LAT>25.029152</LAT><STATUS>0</STATUS></hotspot><hotspot><AP_ID>DA040001</AP_ID><HOTSPOT_NAME>仁愛院區</HOTSPOT_NAME><AREA>仁愛院區</AREA><ADDRESS>臺北市大安區仁愛路四段10號(南棟大樓1樓(大門口中間【牙科】))</ADDRESS><HOTSPOT_TYPE>Taipei Free免費無線上網熱點(室內)</HOTSPOT_TYPE><LNG>121.545224</LNG><LAT>25.037512</LAT><STATUS>0</STATUS></hotspot><hotspot><AP_ID>DA040002</AP_ID><HOTSPOT_NAME>仁愛院區</HOTSPOT_NAME><AREA>仁愛院區</AREA><ADDRESS>臺北市大安區仁愛路四段10號10樓(西側1062病房前上方)</ADDRESS><HOTSPOT_TYPE>Taipei Free免費無線上網熱點(室內)</HOTSPOT_TYPE><LNG>121.545224</LNG><LAT>25.037512</LAT><STATUS>0</STATUS></hotspot><hotspot><AP_ID>DA040003</AP_ID><HOTSPOT_NAME>仁愛院區</HOTSPOT_NAME><AREA>仁愛院區</AREA><ADDRESS>臺北市大安區仁愛路四段10號10樓(西側1028病房前上方)</ADDRESS><HOTSPOT_TYPE>Taipei Free免費無線上網熱點(室內)</HOTSPOT_TYPE><LNG>121.545224</LNG><LAT>25.037512</LAT><STATUS>0</STATUS></hotspot><hotspot><AP_ID>DA040004</AP_ID><HOTSPOT_NAME>仁愛院區</HOTSPOT_NAME><AREA>仁愛院區</AREA><ADDRESS>臺北市大安區仁愛路四段10號10樓(往西側大門進入護理站前)</ADDRESS><HOTSPOT_TYPE>Taipei Free免費無線上網熱點(室內)</HOTSPOT_TYPE><LNG>121.545224</LNG><LAT>25.037512</LAT><STATUS>0</STATUS></hotspot><hotspot><AP_ID>DA040005</AP_ID><HOTSPOT_NAME>仁愛院區</HOTSPOT_NAME><AREA>仁愛院區</AREA><ADDRESS>臺北市大安區仁愛路四段10號10樓(東側1025病房前上方)</ADDRESS><HOTSPOT_TYPE>Taipei Free免費無線上網熱點(室內)</HOTSPOT_TYPE><LNG>121.545224</LNG><LAT>25.037512</LAT><STATUS>0</STATUS></hotspot><hotspot><AP_ID>DA040006</AP_ID><HOTSPOT_NAME>仁愛院區</HOTSPOT_NAME><AREA>仁愛院區</AREA><ADDRESS>臺北市大安區仁愛路四段10號10樓(東側餐飲區中間上方)</ADDRESS><HOTSPOT_TYPE>Taipei Free免費無線上網熱點(室內)</HOTSPOT_TYPE><LNG>121.545224</LNG><LAT>25.037512</LAT><STATUS>0</STATUS></hotspot><hotspot><AP_ID>DA040007</AP_ID><HOTSPOT_NAME>仁愛院區</HOTSPOT_NAME><AREA>仁愛院區</AREA><ADDRESS>臺北市大安區仁愛路四段10號10樓(東側骨質密度檢查室前上方)</ADDRESS><HOTSPOT_TYPE>Taipei Free免費無線上網熱點(室內)</HOTSPOT_TYPE><LNG>121.545224</LNG><LAT>25.037512</LAT><STATUS>0</STATUS></hotspot><hotspot><AP_ID>DA040008</AP_ID><HOTSPOT_NAME>仁愛院區</HOTSPOT_NAME><AREA>仁愛院區</AREA><ADDRESS>臺北市大安區仁愛路四段10號11樓(西側護理站旁)</ADDRESS><HOTSPOT_TYPE>Taipei Free免費無線上網熱點(室內)</HOTSPOT_TYPE><LNG>121.545224</LNG><LAT>25.037512</LAT><STATUS>0</STATUS></hotspot><hotspot><AP_ID>DA040009</AP_ID><HOTSPOT_NAME>仁愛院區</HOTSPOT_NAME><AREA>仁愛院區</AREA><ADDRESS>臺北市大安區仁愛路四段10號11樓(西側大門口右邊走廊中央走道醫師室旁)</ADDRESS><HOTSPOT_TYPE>Taipei Free免費無線上網熱點(室內)</HOTSPOT_TYPE><LNG>121.545224</LNG><LAT>25.037512</LAT><STATUS>0</STATUS></hotspot><hotspot><AP_ID>DA040010</AP_ID><HOTSPOT_NAME>仁愛院區</HOTSPOT_NAME><AREA>仁愛院區</AREA><ADDRESS>臺北市大安區仁愛路四段10號11樓(西側1160室門口前)</ADDRESS><HOTSPOT_TYPE>Taipei Free免費無線上網熱點(室內)</HOTSPOT_TYPE><LNG>121.545224</LNG><LAT>25.037512</LAT><STATUS>0</STATUS></hotspot><hotspot><AP_ID>DA040011</AP_ID><HOTSPOT_NAME>仁愛院區</HOTSPOT_NAME><AREA>仁愛院區</AREA><ADDRESS>臺北市大安區仁愛路四段10號11樓(東側胃腸中心休息區旁電話亭)</ADDRESS><HOTSPOT_TYPE>Taipei Free免費無線上網熱點(室內)</HOTSPOT_TYPE><LNG>121.545224</LNG><LAT>25.037512</LAT><STATUS>0</STATUS></hotspot><hotspot><AP_ID>DA040013</AP_ID><HOTSPOT_NAME>仁愛院區</HOTSPOT_NAME><AREA>仁愛院區</AREA><ADDRESS>臺北市大安區仁愛路四段10號1樓(5號批價櫃台裡上方)</ADDRESS><HOTSPOT_TYPE>Taipei Free免費無線上網熱點(室內)</HOTSPOT_TYPE><LNG>121.545224</LNG><LAT>25.037512</LAT><STATUS>0</STATUS></hotspot><hotspot><AP_ID>DA040014</AP_ID><HOTSPOT_NAME>仁愛院區</HOTSPOT_NAME><AREA>仁愛院區</AREA><ADDRESS>臺北市大安區仁愛路四段10號1樓(電梯往西側方向之急診室櫃台)</ADDRESS><HOTSPOT_TYPE>Taipei Free免費無線上網熱點(室內)</HOTSPOT_TYPE><LNG>121.545224</LNG><LAT>25.037512</LAT><STATUS>0</STATUS></hotspot><hotspot><AP_ID>DA040015</AP_ID><HOTSPOT_NAME>仁愛院區</HOTSPOT_NAME><AREA>仁愛院區</AREA><ADDRESS>臺北市大安區仁愛路四段10號1樓(復建科內實習學生室前上方)</ADDRESS><HOTSPOT_TYPE>Taipei Free免費無線上網熱點(室內)</HOTSPOT_TYPE><LNG>121.545224</LNG><LAT>25.037512</LAT><STATUS>0</STATUS></hotspot><hotspot><AP_ID>DA040016</AP_ID><HOTSPOT_NAME>仁愛院區</HOTSPOT_NAME><AREA>仁愛院區</AREA><ADDRESS>臺北市大安區仁愛路四段10號1樓(電梯靠近大門之電話亭前靠電梯天花板上方)</ADDRESS><HOTSPOT_TYPE>Taipei Free免費無線上網熱點(室內)</HOTSPOT_TYPE><LNG>121.545224</LNG><LAT>25.037512</LAT><STATUS>0</STATUS></hotspot><hotspot><AP_ID>DA040017</AP_ID><HOTSPOT_NAME>仁愛院區</HOTSPOT_NAME><AREA>仁愛院區</AREA><ADDRESS>臺北市大安區仁愛路四段10號2樓(手扶電梯上來柱子左側上方)</ADDRESS><HOTSPOT_TYPE>Taipei Free免費無線上網熱點(室內)</HOTSPOT_TYPE><LNG>121.545224</LNG><LAT>25.037512</LAT><STATUS>0</STATUS></hotspot><hotspot><AP_ID>DA040018</AP_ID><HOTSPOT_NAME>仁愛院區</HOTSPOT_NAME><AREA>仁愛院區</AREA><ADDRESS>臺北市大安區仁愛路四段10號2樓(高齡身心科32診上方)</ADDRESS><HOTSPOT_TYPE>Taipei Free免費無線上網熱點(室內)</HOTSPOT_TYPE><LNG>121.545224</LNG><LAT>25.037512</LAT><STATUS>0</STATUS></hotspot><hotspot><AP_ID>DA040019</AP_ID><HOTSPOT_NAME>仁愛院區</HOTSPOT_NAME><AREA>仁愛院區</AREA><ADDRESS>臺北市大安區仁愛路四段10號2樓(雷射美容醫學門診前上方)</ADDRESS><HOTSPOT_TYPE>Taipei Free免費無線上網熱點(室內)</HOTSPOT_TYPE><LNG>121.545224</LNG><LAT>25.037512</LAT><STATUS>0</STATUS></hotspot><hotspot><AP_ID>DA040020</AP_ID><HOTSPOT_NAME>仁愛院區</HOTSPOT_NAME><AREA>仁愛院區</AREA><ADDRESS>臺北市大安區仁愛路四段10號2樓(胸腔內科16診前座位區上方)</ADDRESS><HOTSPOT_TYPE>Taipei Free免費無線上網熱點(室內)</HOTSPOT_TYPE><LNG>121.545224</LNG><LAT>25.037512</LAT><STATUS>0</STATUS></hotspot><hotspot><AP_ID>DA040021</AP_ID><HOTSPOT_NAME>仁愛院區</HOTSPOT_NAME><AREA>仁愛院區</AREA><ADDRESS>臺北市大安區仁愛路四段10號2樓(神經內科3診前座位區上方)</ADDRESS><HOTSPOT_TYPE>Taipei Free免費無線上網熱點(室內)</HOTSPOT_TYPE><LNG>121.545224</LNG><LAT>25.037512</LAT><STATUS>0</STATUS></hotspot><hotspot><AP_ID>DA040022</AP_ID><HOTSPOT_NAME>仁愛院區</HOTSPOT_NAME><AREA>仁愛院區</AREA><ADDRESS>臺北市大安區仁愛路四段10號2樓(電梯往東側之耳鼻喉科內座位區上方)</ADDRESS><HOTSPOT_TYPE>Taipei Free免費無線上網熱點(室內)</HOTSPOT_TYPE><LNG>121.545224</LNG><LAT>25.037512</LAT><STATUS>0</STATUS></hotspot><hotspot><AP_ID>DA040023</AP_ID><HOTSPOT_NAME>仁愛院區</HOTSPOT_NAME><AREA>仁愛院區</AREA><ADDRESS>臺北市大安區仁愛路四段10號2樓(電梯往東側之眼科候診內第一診療室門口前)</ADDRESS><HOTSPOT_TYPE>Taipei Free免費無線上網熱點(室內)</HOTSPOT_TYPE><LNG>121.545224</LNG><LAT>25.037512</LAT><STATUS>0</STATUS></hotspot><hotspot><AP_ID>DA040024</AP_ID><HOTSPOT_NAME>仁愛院區</HOTSPOT_NAME><AREA>仁愛院區</AREA><ADDRESS>臺北市大安區仁愛路四段10號2樓(外科2診前座位區中間上方)</ADDRESS><HOTSPOT_TYPE>Taipei Free免費無線上網熱點(室內)</HOTSPOT_TYPE><LNG>121.545224</LNG><LAT>25.037512</LAT><STATUS>0</STATUS></hotspot><hotspot><AP_ID>DA040026</AP_ID><HOTSPOT_NAME>仁愛院區</HOTSPOT_NAME><AREA>仁愛院區</AREA><ADDRESS>臺北市大安區仁愛路四段10號3樓(東側電梯右邊座位區上方)</ADDRESS><HOTSPOT_TYPE>Taipei Free免費無線上網熱點(室內)</HOTSPOT_TYPE><LNG>121.545224</LNG><LAT>25.037512</LAT><STATUS>0</STATUS></hotspot><hotspot><AP_ID>DA040027</AP_ID><HOTSPOT_NAME>仁愛院區</HOTSPOT_NAME><AREA>仁愛院區</AREA><ADDRESS>臺北市大安區仁愛路四段10號5樓(5西540病房前上方)</ADDRESS><HOTSPOT_TYPE>Taipei Free免費無線上網熱點(室內)</HOTSPOT_TYPE><LNG>121.545224</LNG><LAT>25.037512</LAT><STATUS>0</STATUS></hotspot><hotspot><AP_ID>DA040028</AP_ID><HOTSPOT_NAME>仁愛院區</HOTSPOT_NAME><AREA>仁愛院區</AREA><ADDRESS>臺北市大安區仁愛路四段10號5樓(往西側護理站櫃台前)</ADDRESS><HOTSPOT_TYPE>Taipei Free免費無線上網熱點(室內)</HOTSPOT_TYPE><LNG>121.545224</LNG><LAT>25.037512</LAT><STATUS>0</STATUS></hotspot><hotspot><AP_ID>DA040029</AP_ID><HOTSPOT_NAME>仁愛院區</HOTSPOT_NAME><AREA>仁愛院區</AREA><ADDRESS>臺北市大安區仁愛路四段10號6樓(6西618病房與護理站間上方)</ADDRESS><HOTSPOT_TYPE>Taipei Free免費無線上網熱點(室內)</HOTSPOT_TYPE><LNG>121.545224</LNG><LAT>25.037512</LAT><STATUS>0</STATUS></hotspot><hotspot><AP_ID>DA040030</AP_ID><HOTSPOT_NAME>仁愛院區</HOTSPOT_NAME><AREA>仁愛院區</AREA><ADDRESS>臺北市大安區仁愛路四段10號6樓(往西側大門口護理站前)</ADDRESS><HOTSPOT_TYPE>Taipei Free免費無線上網熱點(室內)</HOTSPOT_TYPE><LNG>121.545224</LNG><LAT>25.037512</LAT><STATUS>0</STATUS></hotspot><hotspot><AP_ID>DA040031</AP_ID><HOTSPOT_NAME>仁愛院區</HOTSPOT_NAME><AREA>仁愛院區</AREA><ADDRESS>臺北市大安區仁愛路四段10號6樓(6東共同檢查室暨會談室前上方)</ADDRESS><HOTSPOT_TYPE>Taipei Free免費無線上網熱點(室內)</HOTSPOT_TYPE><LNG>121.545224</LNG><LAT>25.037512</LAT><STATUS>0</STATUS></hotspot><hotspot><AP_ID>DA040032</AP_ID><HOTSPOT_NAME>仁愛院區</HOTSPOT_NAME><AREA>仁愛院區</AREA><ADDRESS>臺北市大安區仁愛路四段10號6樓(6東627病房與護理站間上方)</ADDRESS><HOTSPOT_TYPE>Taipei Free免費無線上網熱點(室內)</HOTSPOT_TYPE><LNG>121.545224</LNG><LAT>25.037512</LAT><STATUS>0</STATUS></hotspot><hotspot><AP_ID>DA040033</AP_ID><HOTSPOT_NAME>仁愛院區</HOTSPOT_NAME><AREA>仁愛院區</AREA><ADDRESS>臺北市大安區仁愛路四段10號6樓(往東側大門口進去之護理站前偏605病房上方)</ADDRESS><HOTSPOT_TYPE>Taipei Free免費無線上網熱點(室內)</HOTSPOT_TYPE><LNG>121.545224</LNG><LAT>25.037512</LAT><STATUS>0</STATUS></hotspot><hotspot><AP_ID>DA040035</AP_ID><HOTSPOT_NAME>仁愛院區</HOTSPOT_NAME><AREA>仁愛院區</AREA><ADDRESS>臺北市大安區仁愛路四段10號7樓(往西側大門口進去之護理站右邊走廊中央走道、736病房前)</ADDRESS><HOTSPOT_TYPE>Taipei Free免費無線上網熱點(室內)</HOTSPOT_TYPE><LNG>121.545224</LNG><LAT>25.037512</LAT><STATUS>0</STATUS></hotspot><hotspot><AP_ID>DA040037</AP_ID><HOTSPOT_NAME>仁愛院區</HOTSPOT_NAME><AREA>仁愛院區</AREA><ADDRESS>臺北市大安區仁愛路四段10號7樓(往西側大門護理站前)</ADDRESS><HOTSPOT_TYPE>Taipei Free免費無線上網熱點(室內)</HOTSPOT_TYPE><LNG>121.545224</LNG><LAT>25.037512</LAT><STATUS>0</STATUS></hotspot><hotspot><AP_ID>DA040038</AP_ID><HOTSPOT_NAME>仁愛院區</HOTSPOT_NAME><AREA>仁愛院區</AREA><ADDRESS>臺北市大安區仁愛路四段10號7樓(往東側大門進入護理站左邊走廊之血管檢查室)</ADDRESS><HOTSPOT_TYPE>Taipei Free免費無線上網熱點(室內)</HOTSPOT_TYPE><LNG>121.545224</LNG><LAT>25.037512</LAT><STATUS>0</STATUS></hotspot><hotspot><AP_ID>DA040039</AP_ID><HOTSPOT_NAME>仁愛院區</HOTSPOT_NAME><AREA>仁愛院區</AREA><ADDRESS>臺北市大安區仁愛路四段10號7樓(東側725病房前上方)</ADDRESS><HOTSPOT_TYPE>Taipei Free免費無線上網熱點(室內)</HOTSPOT_TYPE><LNG>121.545224</LNG><LAT>25.037512</LAT><STATUS>0</STATUS></hotspot><hotspot><AP_ID>DA040040</AP_ID><HOTSPOT_NAME>仁愛院區</HOTSPOT_NAME><AREA>仁愛院區</AREA><ADDRESS>臺北市大安區仁愛路四段10號7樓(往東側大門進入護理站前)</ADDRESS><HOTSPOT_TYPE>Taipei Free免費無線上網熱點(室內)</HOTSPOT_TYPE><LNG>121.545224</LNG><LAT>25.037512</LAT><STATUS>1</STATUS></hotspot><hotspot><AP_ID>DA040043</AP_ID><HOTSPOT_NAME>仁愛院區</HOTSPOT_NAME><AREA>仁愛院區</AREA><ADDRESS>臺北市大安區仁愛路四段10號8樓(東側847病房前上方)</ADDRESS><HOTSPOT_TYPE>Taipei Free免費無線上網熱點(室內)</HOTSPOT_TYPE><LNG>121.545224</LNG><LAT>25.037512</LAT><STATUS>0</STATUS></hotspot><hotspot><AP_ID>DA040044</AP_ID><HOTSPOT_NAME>仁愛院區</HOTSPOT_NAME><AREA>仁愛院區</AREA><ADDRESS>臺北市大安區仁愛路四段10號8樓(往東側大門進入護理站前中間上方)</ADDRESS><HOTSPOT_TYPE>Taipei Free免費無線上網熱點(室內)</HOTSPOT_TYPE><LNG>121.545224</LNG><LAT>25.037512</LAT><STATUS>0</STATUS></hotspot><hotspot><AP_ID>DA040045</AP_ID><HOTSPOT_NAME>仁愛院區</HOTSPOT_NAME><AREA>仁愛院區</AREA><ADDRESS>臺北市大安區仁愛路四段10號9樓(9西護理站前上方)</ADDRESS><HOTSPOT_TYPE>Taipei Free免費無線上網熱點(室內)</HOTSPOT_TYPE><LNG>121.545224</LNG><LAT>25.037512</LAT><STATUS>0</STATUS></hotspot><hotspot><AP_ID>DA040046</AP_ID><HOTSPOT_NAME>仁愛院區</HOTSPOT_NAME><AREA>仁愛院區</AREA><ADDRESS>臺北市大安區仁愛路四段10號9樓(9西916病房前天花板)</ADDRESS><HOTSPOT_TYPE>Taipei Free免費無線上網熱點(室內)</HOTSPOT_TYPE><LNG>121.545224</LNG><LAT>25.037512</LAT><STATUS>0</STATUS></hotspot><hotspot><AP_ID>DA040047</AP_ID><HOTSPOT_NAME>仁愛院區</HOTSPOT_NAME><AREA>仁愛院區</AREA><ADDRESS>臺北市大安區仁愛路四段10號9樓(東側913病房與e/c室間上方)</ADDRESS><HOTSPOT_TYPE>Taipei Free免費無線上網熱點(室內)</HOTSPOT_TYPE><LNG>121.545224</LNG><LAT>25.037512</LAT><STATUS>0</STATUS></hotspot><hotspot><AP_ID>DA040048</AP_ID><HOTSPOT_NAME>仁愛院區</HOTSPOT_NAME><AREA>仁愛院區</AREA><ADDRESS>臺北市大安區仁愛路四段10號9樓(往東側大門進入護理站左邊走廊之937病房)</ADDRESS><HOTSPOT_TYPE>Taipei Free免費無線上網熱點(室內)</HOTSPOT_TYPE><LNG>121.545224</LNG><LAT>25.037512</LAT><STATUS>0</STATUS></hotspot><hotspot><AP_ID>DA040049</AP_ID><HOTSPOT_NAME>仁愛院區</HOTSPOT_NAME><AREA>仁愛院區</AREA><ADDRESS>臺北市大安區仁愛路四段10號9樓(東側護理站前)</ADDRESS><HOTSPOT_TYPE>Taipei Free免費無線上網熱點(室內)</HOTSPOT_TYPE><LNG>121.545224</LNG><LAT>25.037512</LAT><STATUS>0</STATUS></hotspot><hotspot><AP_ID>DA040050</AP_ID><HOTSPOT_NAME>仁愛院區</HOTSPOT_NAME><AREA>仁愛院區</AREA><ADDRESS>臺北市大安區仁愛路四段10號9樓(9西948病房前上方)</ADDRESS><HOTSPOT_TYPE>Taipei Free免費無線上網熱點(室內)</HOTSPOT_TYPE><LNG>121.545224</LNG><LAT>25.037512</LAT><STATUS>0</STATUS></hotspot><hotspot><AP_ID>DA040051</AP_ID><HOTSPOT_NAME>仁愛院區</HOTSPOT_NAME><AREA>仁愛院區</AREA><ADDRESS>臺北市大安區仁愛路四段10號B1樓(餐飲區服飾店內底上方)</ADDRESS><HOTSPOT_TYPE>Taipei Free免費無線上網熱點(室內)</HOTSPOT_TYPE><LNG>121.545224</LNG><LAT>25.037512</LAT><STATUS>0</STATUS></hotspot><hotspot><AP_ID>DA040052</AP_ID><HOTSPOT_NAME>仁愛院區</HOTSPOT_NAME><AREA>仁愛院區</AREA><ADDRESS>臺北市大安區仁愛路四段10號4樓(馨悅11號病房門口上方天花板內)</ADDRESS><HOTSPOT_TYPE>Taipei Free免費無線上網熱點(室內)</HOTSPOT_TYPE><LNG>121.545224</LNG><LAT>25.037512</LAT><STATUS>0</STATUS></hotspot><hotspot><AP_ID>DA040053</AP_ID><HOTSPOT_NAME>仁愛院區</HOTSPOT_NAME><AREA>仁愛院區</AREA><ADDRESS>臺北市大安區仁愛路四段10號4樓(馨悅03號病房門口上方天花板內)</ADDRESS><HOTSPOT_TYPE>Taipei Free免費無線上網熱點(室內)</HOTSPOT_TYPE><LNG>121.545224</LNG><LAT>25.037512</LAT><STATUS>0</STATUS></hotspot><hotspot><AP_ID>DA040054</AP_ID><HOTSPOT_NAME>仁愛院區</HOTSPOT_NAME><AREA>仁愛院區</AREA><ADDRESS>臺北市大安區仁愛路四段10號4樓(412房門口上方天花板內)</ADDRESS><HOTSPOT_TYPE>Taipei Free免費無線上網熱點(室內)</HOTSPOT_TYPE><LNG>121.545224</LNG><LAT>25.037512</LAT><STATUS>0</STATUS></hotspot><hotspot><AP_ID>DA040055</AP_ID><HOTSPOT_NAME>仁愛院區</HOTSPOT_NAME><AREA>仁愛院區</AREA><ADDRESS>臺北市大安區仁愛路四段10號4樓(420房門口上方天花板內)</ADDRESS><HOTSPOT_TYPE>Taipei Free免費無線上網熱點(室內)</HOTSPOT_TYPE><LNG>121.545224</LNG><LAT>25.037512</LAT><STATUS>0</STATUS></hotspot><hotspot><AP_ID>DA040056</AP_ID><HOTSPOT_NAME>仁愛院區</HOTSPOT_NAME><AREA>仁愛院區</AREA><ADDRESS>臺北市大安區仁愛路四段10號4樓(428病房前上方天花板內)</ADDRESS><HOTSPOT_TYPE>Taipei Free免費無線上網熱點(室內)</HOTSPOT_TYPE><LNG>121.545224</LNG><LAT>25.037512</LAT><STATUS>0</STATUS></hotspot><hotspot><AP_ID>DA040057</AP_ID><HOTSPOT_NAME>仁愛院區</HOTSPOT_NAME><AREA>仁愛院區</AREA><ADDRESS>臺北市大安區仁愛路四段10號4樓(452房門口上方天花板內)</ADDRESS><HOTSPOT_TYPE>Taipei Free免費無線上網熱點(室內)</HOTSPOT_TYPE><LNG>121.545224</LNG><LAT>25.037512</LAT><STATUS>0</STATUS></hotspot><hotspot><AP_ID>DA050002</AP_ID><HOTSPOT_NAME>東區地下街(忠孝敦化至忠孝復興)</HOTSPOT_NAME><AREA>地下街</AREA><ADDRESS>臺北市大安區大安路一段77號B1(東區地下街12號出口)</ADDRESS><HOTSPOT_TYPE>Taipei Free免費無線上網熱點(室內)</HOTSPOT_TYPE><LNG>121.546223</LNG><LAT>25.041806</LAT><STATUS>0</STATUS></hotspot><hotspot><AP_ID>DA050003</AP_ID><HOTSPOT_NAME>東區地下街(忠孝敦化至忠孝復興)</HOTSPOT_NAME><AREA>地下街</AREA><ADDRESS>臺北市大安區大安路一段77號B1(東區地下街店11號12號出口之間近鋪11-4前)</ADDRESS><HOTSPOT_TYPE>Taipei Free免費無線上網熱點(室內)</HOTSPOT_TYPE><LNG>121.546223</LNG><LAT>25.041806</LAT><STATUS>0</STATUS></hotspot><hotspot><AP_ID>DA050004</AP_ID><HOTSPOT_NAME>東區地下街(忠孝敦化至忠孝復興)</HOTSPOT_NAME><AREA>地下街</AREA><ADDRESS>臺北市大安區大安路一段77號B1(東區地下街13號14號出口之間近店鋪6-2前間)</ADDRESS><HOTSPOT_TYPE>Taipei Free免費無線上網熱點(室內)</HOTSPOT_TYPE><LNG>121.546223</LNG><LAT>25.041806</LAT><STATUS>0</STATUS></hotspot><hotspot><AP_ID>DA050005</AP_ID><HOTSPOT_NAME>東區地下街(忠孝敦化至忠孝復興)</HOTSPOT_NAME><AREA>地下街</AREA><ADDRESS>臺北市大安區大安路一段77號B1(東區地下街14號15號出口之間近店鋪4-2前)</ADDRESS><HOTSPOT_TYPE>Taipei Free免費無線上網熱點(室內)</HOTSPOT_TYPE><LNG>121.546223</LNG><LAT>25.041806</LAT><STATUS>0</STATUS></hotspot><hotspot><AP_ID>DA050006</AP_ID><HOTSPOT_NAME>東區地下街(忠孝敦化至忠孝復興)</HOTSPOT_NAME><AREA>地下街</AREA><ADDRESS>臺北市大安區大安路一段77號B1(近東區地下街16號出口往西20公尺上方)</ADDRESS><HOTSPOT_TYPE>Taipei Free免費無線上網熱點(室內)</HOTSPOT_TYPE><LNG>121.546223</LNG><LAT>25.041806</LAT><STATUS>0</STATUS></hotspot><hotspot><AP_ID>DA050007</AP_ID><HOTSPOT_NAME>東區地下街(忠孝敦化至忠孝復興)</HOTSPOT_NAME><AREA>地下街</AREA><ADDRESS>臺北市大安區大安路一段77號B1(近東區地下街16號出口往西40公尺上方)</ADDRESS><HOTSPOT_TYPE>Taipei Free免費無線上網熱點(室內)</HOTSPOT_TYPE><LNG>121.546223</LNG><LAT>25.041806</LAT><STATUS>0</STATUS></hotspot><hotspot><AP_ID>DA050008</AP_ID><HOTSPOT_NAME>東區地下街(忠孝敦化至忠孝復興)</HOTSPOT_NAME><AREA>地下街</AREA><ADDRESS>臺北市大安區大安路一段77號B1(東區地下街店鋪35-1號前)</ADDRESS><HOTSPOT_TYPE>Taipei Free免費無線上網熱點(室內)</HOTSPOT_TYPE><LNG>121.546223</LNG><LAT>25.041806</LAT><STATUS>0</STATUS></hotspot><hotspot><AP_ID>DA050009</AP_ID><HOTSPOT_NAME>東區地下街(忠孝敦化至忠孝復興)</HOTSPOT_NAME><AREA>地下街</AREA><ADDRESS>臺北市大安區大安路一段77號B1(東區地下街第七廣場中間)</ADDRESS><HOTSPOT_TYPE>Taipei Free免費無線上網熱點(室內)</HOTSPOT_TYPE><LNG>121.546223</LNG><LAT>25.041806</LAT><STATUS>0</STATUS></hotspot><hotspot><AP_ID>DA050010</AP_ID><HOTSPOT_NAME>東區地下街(忠孝敦化至忠孝復興)</HOTSPOT_NAME><AREA>地下街</AREA><ADDRESS>臺北市大安區大安路一段77號B1(東區地下街店號29號前上方)</ADDRESS><HOTSPOT_TYPE>Taipei Free免費無線上網熱點(室內)</HOTSPOT_TYPE><LNG>121.546223</LNG><LAT>25.041806</LAT><STATUS>0</STATUS></hotspot><hotspot><AP_ID>DA050011</AP_ID><HOTSPOT_NAME>東區地下街(忠孝敦化至忠孝復興)</HOTSPOT_NAME><AREA>地下街</AREA><ADDRESS>臺北市大安區大安路一段77號B1(東區地下街店號22-2號前上方)</ADDRESS><HOTSPOT_TYPE>Taipei Free免費無線上網熱點(室內)</HOTSPOT_TYPE><LNG>121.546223</LNG><LAT>25.041806</LAT><STATUS>0</STATUS></hotspot><hotspot><AP_ID>DA050012</AP_ID><HOTSPOT_NAME>東區地下街(忠孝敦化至忠孝復興)</HOTSPOT_NAME><AREA>地下街</AREA><ADDRESS>臺北市大安區大安路一段77號B1(東區地下街6號8號出口之間)</ADDRESS><HOTSPOT_TYPE>Taipei Free免費無線上網熱點(室內)</HOTSPOT_TYPE><LNG>121.546223</LNG><LAT>25.041806</LAT><STATUS>0</STATUS></hotspot><hotspot><AP_ID>DA050013</AP_ID><HOTSPOT_NAME>東區地下街(忠孝敦化至忠孝復興)</HOTSPOT_NAME><AREA>地下街</AREA><ADDRESS>臺北市大安區大安路一段77號B1(東區地下街8號出口指示牌與忠孝敦化站指示牌前方)</ADDRESS><HOTSPOT_TYPE>Taipei Free免費無線上網熱點(室內)</HOTSPOT_TYPE><LNG>121.546223</LNG><LAT>25.041806</LAT><STATUS>0</STATUS></hotspot><hotspot><AP_ID>DA050014</AP_ID><HOTSPOT_NAME>東區地下街(忠孝敦化至忠孝復興)</HOTSPOT_NAME><AREA>地下街</AREA><ADDRESS>臺北市大安區大安路一段77號B1(東區地下街9號10號出口之間近店鋪16-3前)</ADDRESS><HOTSPOT_TYPE>Taipei Free免費無線上網熱點(室內)</HOTSPOT_TYPE><LNG>121.546223</LNG><LAT>25.041806</LAT><STATUS>0</STATUS></hotspot><hotspot><AP_ID>DA050015</AP_ID><HOTSPOT_NAME>東區地下街(忠孝敦化至忠孝復興)</HOTSPOT_NAME><AREA>地下街</AREA><ADDRESS>臺北市大安區大安路一段77號B1(近東區地下街10號出口)</ADDRESS><HOTSPOT_TYPE>Taipei Free免費無線上網熱點(室內)</HOTSPOT_TYPE><LNG>121.546223</LNG><LAT>25.041806</LAT><STATUS>0</STATUS></hotspot><hotspot><AP_ID>DA050016</AP_ID><HOTSPOT_NAME>東區地下街(忠孝敦化至忠孝復興)</HOTSPOT_NAME><AREA>地下街</AREA><ADDRESS>臺北市大安區大安路一段77號B1(近東區地下街11號出口)</ADDRESS><HOTSPOT_TYPE>Taipei Free免費無線上網熱點(室內)</HOTSPOT_TYPE><LNG>121.546223</LNG><LAT>25.041806</LAT><STATUS>0</STATUS></hotspot><hotspot><AP_ID>DA050017</AP_ID><HOTSPOT_NAME>東區地下街(忠孝敦化至忠孝復興)</HOTSPOT_NAME><AREA>地下街</AREA><ADDRESS>臺北市大安區大安路一段77號B1(近東區地下街13號出口)</ADDRESS><HOTSPOT_TYPE>Taipei Free免費無線上網熱點(室內)</HOTSPOT_TYPE><LNG>121.546223</LNG><LAT>25.041806</LAT><STATUS>0</STATUS></hotspot><hotspot><AP_ID>DA050018</AP_ID><HOTSPOT_NAME>東區地下街(忠孝敦化至忠孝復興)</HOTSPOT_NAME><AREA>地下街</AREA><ADDRESS>臺北市大安區大安路一段77號B1(近東區地下街15號出口)</ADDRESS><HOTSPOT_TYPE>Taipei Free免費無線上網熱點(室內)</HOTSPOT_TYPE><LNG>121.546223</LNG><LAT>25.041806</LAT><STATUS>0</STATUS></hotspot><hotspot><AP_ID>DA050019</AP_ID><HOTSPOT_NAME>東區地下街(忠孝敦化至忠孝復興)</HOTSPOT_NAME><AREA>地下街</AREA><ADDRESS>臺北市大安區大安路一段77號B1(近東區地下街16號出口)</ADDRESS><HOTSPOT_TYPE>Taipei Free免費無線上網熱點(室內)</HOTSPOT_TYPE><LNG>121.546223</LNG><LAT>25.041806</LAT><STATUS>0</STATUS></hotspot><hotspot><AP_ID>DA050020</AP_ID><HOTSPOT_NAME>東區地下街(忠孝敦化至忠孝復興)</HOTSPOT_NAME><AREA>地下街</AREA><ADDRESS>臺北市大安區大安路一段77號B1(近東區地下街17號出口)</ADDRESS><HOTSPOT_TYPE>Taipei Free免費無線上網熱點(室內)</HOTSPOT_TYPE><LNG>121.546223</LNG><LAT>25.041806</LAT><STATUS>0</STATUS></hotspot><hotspot><AP_ID>DA050021</AP_ID><HOTSPOT_NAME>東區地下街(忠孝敦化至忠孝復興)</HOTSPOT_NAME><AREA>地下街</AREA><ADDRESS>臺北市大安區大安路一段77號B1(近東區地下街1號出口)</ADDRESS><HOTSPOT_TYPE>Taipei Free免費無線上網熱點(室內)</HOTSPOT_TYPE><LNG>121.546223</LNG><LAT>25.041806</LAT><STATUS>0</STATUS></hotspot><hotspot><AP_ID>DA050022</AP_ID><HOTSPOT_NAME>東區地下街(忠孝敦化至忠孝復興)</HOTSPOT_NAME><AREA>地下街</AREA><ADDRESS>臺北市大安區大安路一段77號B1(近東區地下街2號出口)</ADDRESS><HOTSPOT_TYPE>Taipei Free免費無線上網熱點(室內)</HOTSPOT_TYPE><LNG>121.546223</LNG><LAT>25.041806</LAT><STATUS>0</STATUS></hotspot><hotspot><AP_ID>DA050023</AP_ID><HOTSPOT_NAME>東區地下街(忠孝敦化至忠孝復興)</HOTSPOT_NAME><AREA>地下街</AREA><ADDRESS>臺北市大安區大安路一段77號B1(近東區地下街3號出口)</ADDRESS><HOTSPOT_TYPE>Taipei Free免費無線上網熱點(室內)</HOTSPOT_TYPE><LNG>121.546223</LNG><LAT>25.041806</LAT><STATUS>0</STATUS></hotspot><hotspot><AP_ID>DA050024</AP_ID><HOTSPOT_NAME>東區地下街(忠孝敦化至忠孝復興)</HOTSPOT_NAME><AREA>地下街</AREA><ADDRESS>臺北市大安區大安路一段77號B1(近東區地下街4號出口)</ADDRESS><HOTSPOT_TYPE>Taipei Free免費無線上網熱點(室內)</HOTSPOT_TYPE><LNG>121.546223</LNG><LAT>25.041806</LAT><STATUS>0</STATUS></hotspot><hotspot><AP_ID>DA050025</AP_ID><HOTSPOT_NAME>東區地下街(忠孝敦化至忠孝復興)</HOTSPOT_NAME><AREA>地下街</AREA><ADDRESS>臺北市大安區大安路一段77號B1(近東區地下街5號出口)</ADDRESS><HOTSPOT_TYPE>Taipei Free免費無線上網熱點(室內)</HOTSPOT_TYPE><LNG>121.546223</LNG><LAT>25.041806</LAT><STATUS>0</STATUS></hotspot><hotspot><AP_ID>DA050026</AP_ID><HOTSPOT_NAME>東區地下街(忠孝敦化至忠孝復興)</HOTSPOT_NAME><AREA>地下街</AREA><ADDRESS>臺北市大安區大安路一段77號B1(東區地下街6號出口指示牌與忠孝敦化站指示牌前方)</ADDRESS><HOTSPOT_TYPE>Taipei Free免費無線上網熱點(室內)</HOTSPOT_TYPE><LNG>121.546223</LNG><LAT>25.041806</LAT><STATUS>0</STATUS></hotspot><hotspot><AP_ID>DA050027</AP_ID><HOTSPOT_NAME>東區地下街(忠孝敦化至忠孝復興)</HOTSPOT_NAME><AREA>地下街</AREA><ADDRESS>臺北市大安區大安路一段77號B1(近東區地下街6號出口樓梯前)</ADDRESS><HOTSPOT_TYPE>Taipei Free免費無線上網熱點(室內)</HOTSPOT_TYPE><LNG>121.546223</LNG><LAT>25.041806</LAT><STATUS>0</STATUS></hotspot><hotspot><AP_ID>DA050028</AP_ID><HOTSPOT_NAME>東區地下街(忠孝敦化至忠孝復興)</HOTSPOT_NAME><AREA>地下街</AREA><ADDRESS>臺北市大安區大安路一段77號B1(近東區地下街7號出口)</ADDRESS><HOTSPOT_TYPE>Taipei Free免費無線上網熱點(室內)</HOTSPOT_TYPE><LNG>121.546223</LNG><LAT>25.041806</LAT><STATUS>0</STATUS></hotspot><hotspot><AP_ID>DA050029</AP_ID><HOTSPOT_NAME>東區地下街(忠孝敦化至忠孝復興)</HOTSPOT_NAME><AREA>地下街</AREA><ADDRESS>臺北市大安區大安路一段77號B1(近東區地下街8號出口樓梯前)</ADDRESS><HOTSPOT_TYPE>Taipei Free免費無線上網熱點(室內)</HOTSPOT_TYPE><LNG>121.546223</LNG><LAT>25.041806</LAT><STATUS>0</STATUS></hotspot><hotspot><AP_ID>DA050030</AP_ID><HOTSPOT_NAME>東區地下街(忠孝敦化至忠孝復興)</HOTSPOT_NAME><AREA>地下街</AREA><ADDRESS>臺北市大安區大安路一段77號B1(近東區地下街9號出口)</ADDRESS><HOTSPOT_TYPE>Taipei Free免費無線上網熱點(室內)</HOTSPOT_TYPE><LNG>121.546223</LNG><LAT>25.041806</LAT><STATUS>0</STATUS></hotspot><hotspot><AP_ID>DA050031</AP_ID><HOTSPOT_NAME>六張犁站</HOTSPOT_NAME><AREA>捷運站</AREA><ADDRESS>臺北市大安區和平東路三段168號(1號月台3門)</ADDRESS><HOTSPOT_TYPE>Taipei Free免費無線上網熱點(室內)</HOTSPOT_TYPE><LNG>121.553115</LNG><LAT>25.023777</LAT><STATUS>0</STATUS></hotspot><hotspot><AP_ID>DA050032</AP_ID><HOTSPOT_NAME>六張犁站</HOTSPOT_NAME><AREA>捷運站</AREA><ADDRESS>臺北市大安區和平東路三段168號(天橋上)</ADDRESS><HOTSPOT_TYPE>Taipei Free免費無線上網熱點(室內)</HOTSPOT_TYPE><LNG>121.553115</LNG><LAT>25.023777</LAT><STATUS>0</STATUS></hotspot><hotspot><AP_ID>DA050033</AP_ID><HOTSPOT_NAME>六張犁站</HOTSPOT_NAME><AREA>捷運站</AREA><ADDRESS>臺北市大安區和平東路三段168號(諮詢處)</ADDRESS><HOTSPOT_TYPE>Taipei Free免費無線上網熱點(室內)</HOTSPOT_TYPE><LNG>121.553115</LNG><LAT>25.023777</LAT><STATUS>0</STATUS></hotspot><hotspot><AP_ID>DA050034</AP_ID><HOTSPOT_NAME>麟光站</HOTSPOT_NAME><AREA>捷運站</AREA><ADDRESS>臺北市大安區和平東路三段410號(1號月台5門)</ADDRESS><HOTSPOT_TYPE>Taipei Free免費無線上網熱點(室內)</HOTSPOT_TYPE><LNG>121.558791</LNG><LAT>25.018535</LAT><STATUS>0</STATUS></hotspot><hotspot><AP_ID>DA050035</AP_ID><HOTSPOT_NAME>麟光站</HOTSPOT_NAME><AREA>捷運站</AREA><ADDRESS>臺北市大安區和平東路三段410號(2號月台手扶梯旁)</ADDRESS><HOTSPOT_TYPE>Taipei Free免費無線上網熱點(室內)</HOTSPOT_TYPE><LNG>121.558791</LNG><LAT>25.018535</LAT><STATUS>0</STATUS></hotspot><hotspot><AP_ID>DA050036</AP_ID><HOTSPOT_NAME>麟光站</HOTSPOT_NAME><AREA>捷運站</AREA><ADDRESS>臺北市大安區和平東路三段410號(天橋上有電梯測)</ADDRESS><HOTSPOT_TYPE>Taipei Free免費無線上網熱點(室內)</HOTSPOT_TYPE><LNG>121.558791</LNG><LAT>25.018535</LAT><STATUS>0</STATUS></hotspot><hotspot><AP_ID>DA050038</AP_ID><HOTSPOT_NAME>麟光站</HOTSPOT_NAME><AREA>捷運站</AREA><ADDRESS>臺北市大安區和平東路三段410號(詢問處旁)</ADDRESS><HOTSPOT_TYPE>Taipei Free免費無線上網熱點(室內)</HOTSPOT_TYPE><LNG>121.558791</LNG><LAT>25.018535</LAT><STATUS>0</STATUS></hotspot><hotspot><AP_ID>DA050043</AP_ID><HOTSPOT_NAME>忠孝敦化站</HOTSPOT_NAME><AREA>捷運站</AREA><ADDRESS>臺北市大安區忠孝東路四段182號((5,6,7,8出口的月台手扶梯後方)</ADDRESS><HOTSPOT_TYPE>Taipei Free免費無線上網熱點(室內)</HOTSPOT_TYPE><LNG>121.551649</LNG><LAT>25.041322</LAT><STATUS>0</STATUS></hotspot><hotspot><AP_ID>DA050045</AP_ID><HOTSPOT_NAME>忠孝敦化站</HOTSPOT_NAME><AREA>捷運站</AREA><ADDRESS>臺北市大安區忠孝東路四段182號(12號出口走道交接點)</ADDRESS><HOTSPOT_TYPE>Taipei Free免費無線上網熱點(室內)</HOTSPOT_TYPE><LNG>121.551649</LNG><LAT>25.041322</LAT><STATUS>0</STATUS></hotspot><hotspot><AP_ID>DA050046</AP_ID><HOTSPOT_NAME>忠孝敦化站</HOTSPOT_NAME><AREA>捷運站</AREA><ADDRESS>臺北市大安區忠孝東路四段182號(1,2,3,4捷運站外走道消防栓前方)</ADDRESS><HOTSPOT_TYPE>Taipei Free免費無線上網熱點(室內)</HOTSPOT_TYPE><LNG>121.551649</LNG><LAT>25.041322</LAT><STATUS>0</STATUS></hotspot><hotspot><AP_ID>DA050047</AP_ID><HOTSPOT_NAME>忠孝敦化站</HOTSPOT_NAME><AREA>捷運站</AREA><ADDRESS>臺北市大安區忠孝東路四段182號(3,4號出口走道交接處)</ADDRESS><HOTSPOT_TYPE>Taipei Free免費無線上網熱點(室內)</HOTSPOT_TYPE><LNG>121.551649</LNG><LAT>25.041322</LAT><STATUS>0</STATUS></hotspot><hotspot><AP_ID>DA050048</AP_ID><HOTSPOT_NAME>忠孝敦化站</HOTSPOT_NAME><AREA>捷運站</AREA><ADDRESS>臺北市大安區忠孝東路四段182號(付費區走道近5,6,7,8出口消防栓箱前方)</ADDRESS><HOTSPOT_TYPE>Taipei Free免費無線上網熱點(室內)</HOTSPOT_TYPE><LNG>121.551649</LNG><LAT>25.041322</LAT><STATUS>0</STATUS></hotspot><hotspot><AP_ID>DA050049</AP_ID><HOTSPOT_NAME>忠孝敦化站</HOTSPOT_NAME><AREA>捷運站</AREA><ADDRESS>臺北市大安區忠孝東路四段182號(5,6,7,8捷運站出口售票處上方)</ADDRESS><HOTSPOT_TYPE>Taipei Free免費無線上網熱點(室內)</HOTSPOT_TYPE><LNG>121.551649</LNG><LAT>25.041322</LAT><STATUS>0</STATUS></hotspot><hotspot><AP_ID>DA050050</AP_ID><HOTSPOT_NAME>忠孝敦化站</HOTSPOT_NAME><AREA>捷運站</AREA><ADDRESS>臺北市大安區忠孝東路四段182號(5,6號出口)</ADDRESS><HOTSPOT_TYPE>Taipei Free免費無線上網熱點(室內)</HOTSPOT_TYPE><LNG>121.551649</LNG><LAT>25.041322</LAT><STATUS>0</STATUS></hotspot><hotspot><AP_ID>DA050051</AP_ID><HOTSPOT_NAME>忠孝敦化站</HOTSPOT_NAME><AREA>捷運站</AREA><ADDRESS>臺北市大安區忠孝東路四段182號(7,8號出口)</ADDRESS><HOTSPOT_TYPE>Taipei Free免費無線上網熱點(室內)</HOTSPOT_TYPE><LNG>121.551649</LNG><LAT>25.041322</LAT><STATUS>0</STATUS></hotspot><hotspot><AP_ID>DA050052</AP_ID><HOTSPOT_NAME>忠孝敦化站</HOTSPOT_NAME><AREA>捷運站</AREA><ADDRESS>臺北市大安區忠孝東路四段182號(月台電梯出口前方)</ADDRESS><HOTSPOT_TYPE>Taipei Free免費無線上網熱點(室內)</HOTSPOT_TYPE><LNG>121.551649</LNG><LAT>25.041322</LAT><STATUS>0</STATUS></hotspot><hotspot><AP_ID>DA050053</AP_ID><HOTSPOT_NAME>忠孝敦化站</HOTSPOT_NAME><AREA>捷運站</AREA><ADDRESS>臺北市大安區忠孝東路四段182號(1234號出口詢問處前非付費區內)</ADDRESS><HOTSPOT_TYPE>Taipei Free免費無線上網熱點(室內)</HOTSPOT_TYPE><LNG>121.551649</LNG><LAT>25.041322</LAT><STATUS>0</STATUS></hotspot><hotspot><AP_ID>DA050058</AP_ID><HOTSPOT_NAME>忠孝復興站(南港線)</HOTSPOT_NAME><AREA>捷運站</AREA><ADDRESS>臺北市大安區忠孝東路四段47號(1,2,5號出口手扶梯後方一號月台)</ADDRESS><HOTSPOT_TYPE>Taipei Free免費無線上網熱點(室內)</HOTSPOT_TYPE><LNG>121.544863</LNG><LAT>25.041784</LAT><STATUS>0</STATUS></hotspot><hotspot><AP_ID>DA050059</AP_ID><HOTSPOT_NAME>忠孝復興站(南港線)</HOTSPOT_NAME><AREA>捷運站</AREA><ADDRESS>臺北市大安區忠孝東路四段47號(1號出口)</ADDRESS><HOTSPOT_TYPE>Taipei Free免費無線上網熱點(室內)</HOTSPOT_TYPE><LNG>121.544863</LNG><LAT>25.041784</LAT><STATUS>0</STATUS></hotspot><hotspot><AP_ID>DA050060</AP_ID><HOTSPOT_NAME>忠孝復興站(南港線)</HOTSPOT_NAME><AREA>捷運站</AREA><ADDRESS>臺北市大安區忠孝東路四段47號(2號出口)</ADDRESS><HOTSPOT_TYPE>Taipei Free免費無線上網熱點(室內)</HOTSPOT_TYPE><LNG>121.544863</LNG><LAT>25.041784</LAT><STATUS>0</STATUS></hotspot><hotspot><AP_ID>DA050061</AP_ID><HOTSPOT_NAME>忠孝復興站(南港線)</HOTSPOT_NAME><AREA>捷運站</AREA><ADDRESS>臺北市大安區忠孝東路四段47號(3,4,5號出口一號月台手扶梯後方)</ADDRESS><HOTSPOT_TYPE>Taipei Free免費無線上網熱點(室內)</HOTSPOT_TYPE><LNG>121.544863</LNG><LAT>25.041784</LAT><STATUS>0</STATUS></hotspot><hotspot><AP_ID>DA050062</AP_ID><HOTSPOT_NAME>忠孝復興站(南港線)</HOTSPOT_NAME><AREA>捷運站</AREA><ADDRESS>臺北市大安區忠孝東路四段47號(3號出口)</ADDRESS><HOTSPOT_TYPE>Taipei Free免費無線上網熱點(室內)</HOTSPOT_TYPE><LNG>121.544863</LNG><LAT>25.041784</LAT><STATUS>0</STATUS></hotspot><hotspot><AP_ID>DA050063</AP_ID><HOTSPOT_NAME>忠孝復興站(南港線)</HOTSPOT_NAME><AREA>捷運站</AREA><ADDRESS>臺北市大安區忠孝東路四段47號(4號出口)</ADDRESS><HOTSPOT_TYPE>Taipei Free免費無線上網熱點(室內)</HOTSPOT_TYPE><LNG>121.544863</LNG><LAT>25.041784</LAT><STATUS>0</STATUS></hotspot><hotspot><AP_ID>DA050064</AP_ID><HOTSPOT_NAME>忠孝復興站(南港線)</HOTSPOT_NAME><AREA>捷運站</AREA><ADDRESS>臺北市大安區忠孝東路四段47號(5號出口旁邊走道)</ADDRESS><HOTSPOT_TYPE>Taipei Free免費無線上網熱點(室內)</HOTSPOT_TYPE><LNG>121.544863</LNG><LAT>25.041784</LAT><STATUS>0</STATUS></hotspot><hotspot><AP_ID>DA050066</AP_ID><HOTSPOT_NAME>忠孝復興站(文山內湖線)</HOTSPOT_NAME><AREA>捷運站</AREA><ADDRESS>臺北市大安區忠孝東路四段47號(一號月台一門)</ADDRESS><HOTSPOT_TYPE>Taipei Free免費無線上網熱點(室內)</HOTSPOT_TYPE><LNG>121.544863</LNG><LAT>25.041784</LAT><STATUS>0</STATUS></hotspot><hotspot><AP_ID>DA050067</AP_ID><HOTSPOT_NAME>忠孝復興站(文山內湖線)</HOTSPOT_NAME><AREA>捷運站</AREA><ADDRESS>臺北市大安區忠孝東路四段47號(一號月台八門)</ADDRESS><HOTSPOT_TYPE>Taipei Free免費無線上網熱點(室內)</HOTSPOT_TYPE><LNG>121.544863</LNG><LAT>25.041784</LAT><STATUS>0</STATUS></hotspot><hotspot><AP_ID>DA050068</AP_ID><HOTSPOT_NAME>忠孝復興站(文山內湖線)</HOTSPOT_NAME><AREA>捷運站</AREA><ADDRESS>臺北市大安區忠孝東路四段47號(一樓二號出口SOGO出口)</ADDRESS><HOTSPOT_TYPE>Taipei Free免費無線上網熱點(室內)</HOTSPOT_TYPE><LNG>121.544863</LNG><LAT>25.041784</LAT><STATUS>0</STATUS></hotspot><hotspot><AP_ID>DA050069</AP_ID><HOTSPOT_NAME>忠孝復興站(文山內湖線)</HOTSPOT_NAME><AREA>捷運站</AREA><ADDRESS>臺北市大安區忠孝東路四段47號(二號月台中間)</ADDRESS><HOTSPOT_TYPE>Taipei Free免費無線上網熱點(室內)</HOTSPOT_TYPE><LNG>121.544863</LNG><LAT>25.041784</LAT><STATUS>0</STATUS></hotspot><hotspot><AP_ID>DA050070</AP_ID><HOTSPOT_NAME>忠孝復興站(文山內湖線)</HOTSPOT_NAME><AREA>捷運站</AREA><ADDRESS>臺北市大安區忠孝東路四段47號(二號月台電梯後方)</ADDRESS><HOTSPOT_TYPE>Taipei Free免費無線上網熱點(室內)</HOTSPOT_TYPE><LNG>121.544863</LNG><LAT>25.041784</LAT><STATUS>0</STATUS></hotspot><hotspot><AP_ID>DA050071</AP_ID><HOTSPOT_NAME>忠孝復興站(文山內湖線)</HOTSPOT_NAME><AREA>捷運站</AREA><ADDRESS>臺北市大安區忠孝東路四段47號(二號出口手扶梯上方)</ADDRESS><HOTSPOT_TYPE>Taipei Free免費無線上網熱點(室內)</HOTSPOT_TYPE><LNG>121.544863</LNG><LAT>25.041784</LAT><STATUS>0</STATUS></hotspot><hotspot><AP_ID>DA050072</AP_ID><HOTSPOT_NAME>忠孝復興站(文山內湖線)</HOTSPOT_NAME><AREA>捷運站</AREA><ADDRESS>臺北市大安區忠孝東路四段47號(二號出口手扶梯間)</ADDRESS><HOTSPOT_TYPE>Taipei Free免費無線上網熱點(室內)</HOTSPOT_TYPE><LNG>121.544863</LNG><LAT>25.041784</LAT><STATUS>0</STATUS></hotspot><hotspot><AP_ID>DA050073</AP_ID><HOTSPOT_NAME>忠孝復興站(文山內湖線)</HOTSPOT_NAME><AREA>捷運站</AREA><ADDRESS>臺北市大安區忠孝東路四段47號(天橋有電梯測)</ADDRESS><HOTSPOT_TYPE>Taipei Free免費無線上網熱點(室內)</HOTSPOT_TYPE><LNG>121.544863</LNG><LAT>25.041784</LAT><STATUS>0</STATUS></hotspot><hotspot><AP_ID>DA050074</AP_ID><HOTSPOT_NAME>忠孝復興站(文山內湖線)</HOTSPOT_NAME><AREA>捷運站</AREA><ADDRESS>臺北市大安區忠孝東路四段47號(天橋無電梯測)</ADDRESS><HOTSPOT_TYPE>Taipei Free免費無線上網熱點(室內)</HOTSPOT_TYPE><LNG>121.544863</LNG><LAT>25.041784</LAT><STATUS>0</STATUS></hotspot><hotspot><AP_ID>DA050075</AP_ID><HOTSPOT_NAME>忠孝復興站(南港線)</HOTSPOT_NAME><AREA>捷運站</AREA><ADDRESS>臺北市大安區忠孝東路四段47號(文湖線手扶梯下前方)</ADDRESS><HOTSPOT_TYPE>Taipei Free免費無線上網熱點(室內)</HOTSPOT_TYPE><LNG>121.544863</LNG><LAT>25.041784</LAT><STATUS>0</STATUS></hotspot><hotspot><AP_ID>DA050076</AP_ID><HOTSPOT_NAME>忠孝復興站(南港線)</HOTSPOT_NAME><AREA>捷運站</AREA><ADDRESS>臺北市大安區忠孝東路四段47號(西測月台電扶梯下方)</ADDRESS><HOTSPOT_TYPE>Taipei Free免費無線上網熱點(室內)</HOTSPOT_TYPE><LNG>121.544863</LNG><LAT>25.041784</LAT><STATUS>0</STATUS></hotspot><hotspot><AP_ID>DA050077</AP_ID><HOTSPOT_NAME>忠孝復興站(南港線)</HOTSPOT_NAME><AREA>捷運站</AREA><ADDRESS>臺北市大安區忠孝東路四段47號(西測月台電梯前方)</ADDRESS><HOTSPOT_TYPE>Taipei Free免費無線上網熱點(室內)</HOTSPOT_TYPE><LNG>121.544863</LNG><LAT>25.041784</LAT><STATUS>0</STATUS></hotspot><hotspot><AP_ID>DA050078</AP_ID><HOTSPOT_NAME>忠孝復興站(南港線)</HOTSPOT_NAME><AREA>捷運站</AREA><ADDRESS>臺北市大安區忠孝東路四段47號(往文湖線左側走道消防栓斜前方)</ADDRESS><HOTSPOT_TYPE>Taipei Free免費無線上網熱點(室內)</HOTSPOT_TYPE><LNG>121.544863</LNG><LAT>25.041784</LAT><STATUS>0</STATUS></hotspot><hotspot><AP_ID>DA050079</AP_ID><HOTSPOT_NAME>忠孝復興站(文山內湖線)</HOTSPOT_NAME><AREA>捷運站</AREA><ADDRESS>臺北市大安區忠孝東路四段47號(往板南線的手扶梯上方)</ADDRESS><HOTSPOT_TYPE>Taipei Free免費無線上網熱點(室內)</HOTSPOT_TYPE><LNG>121.544863</LNG><LAT>25.041784</LAT><STATUS>0</STATUS></hotspot><hotspot><AP_ID>DA050080</AP_ID><HOTSPOT_NAME>忠孝復興站(文山內湖線)</HOTSPOT_NAME><AREA>捷運站</AREA><ADDRESS>臺北市大安區忠孝東路四段47號(面向二號月台最左側)</ADDRESS><HOTSPOT_TYPE>Taipei Free免費無線上網熱點(室內)</HOTSPOT_TYPE><LNG>121.544863</LNG><LAT>25.041784</LAT><STATUS>0</STATUS></hotspot><hotspot><AP_ID>DA050083</AP_ID><HOTSPOT_NAME>大安站</HOTSPOT_NAME><AREA>捷運站</AREA><ADDRESS>臺北市大安區信義路四段2號(1號月台3門)</ADDRESS><HOTSPOT_TYPE>Taipei Free免費無線上網熱點(室內)</HOTSPOT_TYPE><LNG>121.543868</LNG><LAT>25.033147</LAT><STATUS>0</STATUS></hotspot><hotspot><AP_ID>DA050084</AP_ID><HOTSPOT_NAME>大安站</HOTSPOT_NAME><AREA>捷運站</AREA><ADDRESS>臺北市大安區信義路四段2號(1號月台8門)</ADDRESS><HOTSPOT_TYPE>Taipei Free免費無線上網熱點(室內)</HOTSPOT_TYPE><LNG>121.543868</LNG><LAT>25.033147</LAT><STATUS>0</STATUS></hotspot><hotspot><AP_ID>DA050085</AP_ID><HOTSPOT_NAME>大安站</HOTSPOT_NAME><AREA>捷運站</AREA><ADDRESS>臺北市大安區信義路四段2號(2月台1門)</ADDRESS><HOTSPOT_TYPE>Taipei Free免費無線上網熱點(室內)</HOTSPOT_TYPE><LNG>121.543868</LNG><LAT>25.033147</LAT><STATUS>0</STATUS></hotspot><hotspot><AP_ID>DA050086</AP_ID><HOTSPOT_NAME>大安站</HOTSPOT_NAME><AREA>捷運站</AREA><ADDRESS>臺北市大安區信義路四段2號(2號月台6門)</ADDRESS><HOTSPOT_TYPE>Taipei Free免費無線上網熱點(室內)</HOTSPOT_TYPE><LNG>121.543868</LNG><LAT>25.033147</LAT><STATUS>0</STATUS></hotspot><hotspot><AP_ID>DA050087</AP_ID><HOTSPOT_NAME>大安站</HOTSPOT_NAME><AREA>捷運站</AREA><ADDRESS>臺北市大安區信義路四段2號(一樓服務處旁)</ADDRESS><HOTSPOT_TYPE>Taipei Free免費無線上網熱點(室內)</HOTSPOT_TYPE><LNG>121.543868</LNG><LAT>25.033147</LAT><STATUS>0</STATUS></hotspot><hotspot><AP_ID>DA050088</AP_ID><HOTSPOT_NAME>大安站</HOTSPOT_NAME><AREA>捷運站</AREA><ADDRESS>臺北市大安區信義路四段2號(站體南側天橋)</ADDRESS><HOTSPOT_TYPE>Taipei Free免費無線上網熱點(室內)</HOTSPOT_TYPE><LNG>121.543868</LNG><LAT>25.033147</LAT><STATUS>0</STATUS></hotspot><hotspot><AP_ID>DA050089</AP_ID><HOTSPOT_NAME>大安站</HOTSPOT_NAME><AREA>捷運站</AREA><ADDRESS>臺北市大安區信義路四段2號(站體北側天橋)</ADDRESS><HOTSPOT_TYPE>Taipei Free免費無線上網熱點(室內)</HOTSPOT_TYPE><LNG>121.543868</LNG><LAT>25.033147</LAT><STATUS>0</STATUS></hotspot><hotspot><AP_ID>DA050091</AP_ID><HOTSPOT_NAME>大安站</HOTSPOT_NAME><AREA>捷運站</AREA><ADDRESS>臺北市大安區信義路四段2號(廁所前方)</ADDRESS><HOTSPOT_TYPE>Taipei Free免費無線上網熱點(室內)</HOTSPOT_TYPE><LNG>121.543868</LNG><LAT>25.033147</LAT><STATUS>0</STATUS></hotspot><hotspot><AP_ID>DA050095</AP_ID><HOTSPOT_NAME>科技大樓站</HOTSPOT_NAME><AREA>捷運站</AREA><ADDRESS>臺北市大安區復興南路二段235號(1號月台1門)</ADDRESS><HOTSPOT_TYPE>Taipei Free免費無線上網熱點(室內)</HOTSPOT_TYPE><LNG>121.543645</LNG><LAT>25.026136</LAT><STATUS>0</STATUS></hotspot><hotspot><AP_ID>DA050096</AP_ID><HOTSPOT_NAME>科技大樓站</HOTSPOT_NAME><AREA>捷運站</AREA><ADDRESS>臺北市大安區復興南路二段235號(1號月台電梯旁)</ADDRESS><HOTSPOT_TYPE>Taipei Free免費無線上網熱點(室內)</HOTSPOT_TYPE><LNG>121.543645</LNG><LAT>25.026136</LAT><STATUS>0</STATUS></hotspot><hotspot><AP_ID>DA050097</AP_ID><HOTSPOT_NAME>科技大樓站</HOTSPOT_NAME><AREA>捷運站</AREA><ADDRESS>臺北市大安區復興南路二段235號(2號月台3門)</ADDRESS><HOTSPOT_TYPE>Taipei Free免費無線上網熱點(室內)</HOTSPOT_TYPE><LNG>121.543645</LNG><LAT>25.026136</LAT><STATUS>0</STATUS></hotspot><hotspot><AP_ID>DA050098</AP_ID><HOTSPOT_NAME>科技大樓站</HOTSPOT_NAME><AREA>捷運站</AREA><ADDRESS>臺北市大安區復興南路二段235號(2號月台電梯旁)</ADDRESS><HOTSPOT_TYPE>Taipei Free免費無線上網熱點(室內)</HOTSPOT_TYPE><LNG>121.543645</LNG><LAT>25.026136</LAT><STATUS>0</STATUS></hotspot><hotspot><AP_ID>DA050099</AP_ID><HOTSPOT_NAME>科技大樓站</HOTSPOT_NAME><AREA>捷運站</AREA><ADDRESS>臺北市大安區復興南路二段235號(一樓出入口)</ADDRESS><HOTSPOT_TYPE>Taipei Free免費無線上網熱點(室內)</HOTSPOT_TYPE><LNG>121.543645</LNG><LAT>25.026136</LAT><STATUS>0</STATUS></hotspot><hotspot><AP_ID>DA050100</AP_ID><HOTSPOT_NAME>科技大樓站</HOTSPOT_NAME><AREA>捷運站</AREA><ADDRESS>臺北市大安區復興南路二段235號(天橋)</ADDRESS><HOTSPOT_TYPE>Taipei Free免費無線上網熱點(室內)</HOTSPOT_TYPE><LNG>121.543645</LNG><LAT>25.026136</LAT><STATUS>0</STATUS></hotspot><hotspot><AP_ID>DA050101</AP_ID><HOTSPOT_NAME>科技大樓站</HOTSPOT_NAME><AREA>捷運站</AREA><ADDRESS>臺北市大安區復興南路二段235號(諮詢處)</ADDRESS><HOTSPOT_TYPE>Taipei Free免費無線上網熱點(室內)</HOTSPOT_TYPE><LNG>121.543645</LNG><LAT>25.026136</LAT><STATUS>0</STATUS></hotspot><hotspot><AP_ID>DA050103</AP_ID><HOTSPOT_NAME>忠孝新生站(南港線)</HOTSPOT_NAME><AREA>捷運站</AREA><ADDRESS>臺北市大安區新生南路一段67號(1,2號出口站內服務處旁)</ADDRESS><HOTSPOT_TYPE>Taipei Free免費無線上網熱點(室內)</HOTSPOT_TYPE><LNG>121.533107</LNG><LAT>25.042023</LAT><STATUS>0</STATUS></hotspot><hotspot><AP_ID>DA050104</AP_ID><HOTSPOT_NAME>忠孝新生站(南港線)</HOTSPOT_NAME><AREA>捷運站</AREA><ADDRESS>臺北市大安區新生南路一段67號(1號月台1,2號出口手扶梯旁B2)</ADDRESS><HOTSPOT_TYPE>Taipei Free免費無線上網熱點(室內)</HOTSPOT_TYPE><LNG>121.533107</LNG><LAT>25.042023</LAT><STATUS>0</STATUS></hotspot><hotspot><AP_ID>DA050105</AP_ID><HOTSPOT_NAME>忠孝新生站(南港線)</HOTSPOT_NAME><AREA>捷運站</AREA><ADDRESS>臺北市大安區新生南路一段67號(付費區B1與新蘆線交叉口走道上方)</ADDRESS><HOTSPOT_TYPE>Taipei Free免費無線上網熱點(室內)</HOTSPOT_TYPE><LNG>121.533107</LNG><LAT>25.042023</LAT><STATUS>0</STATUS></hotspot><hotspot><AP_ID>DA050106</AP_ID><HOTSPOT_NAME>忠孝新生站(南港線)</HOTSPOT_NAME><AREA>捷運站</AREA><ADDRESS>臺北市大安區新生南路一段67號(1號出口手扶梯旁B1)</ADDRESS><HOTSPOT_TYPE>Taipei Free免費無線上網熱點(室內)</HOTSPOT_TYPE><LNG>121.533107</LNG><LAT>25.042023</LAT><STATUS>0</STATUS></hotspot><hotspot><AP_ID>DA050108</AP_ID><HOTSPOT_NAME>忠孝新生站(南港線)</HOTSPOT_NAME><AREA>捷運站</AREA><ADDRESS>臺北市大安區新生南路一段67號(2號月台3,4號出口手扶梯B2)</ADDRESS><HOTSPOT_TYPE>Taipei Free免費無線上網熱點(室內)</HOTSPOT_TYPE><LNG>121.533107</LNG><LAT>25.042023</LAT><STATUS>0</STATUS></hotspot><hotspot><AP_ID>DA050109</AP_ID><HOTSPOT_NAME>忠孝新生站(南港線)</HOTSPOT_NAME><AREA>捷運站</AREA><ADDRESS>臺北市大安區新生南路一段67號(非付費區b1走道中央)</ADDRESS><HOTSPOT_TYPE>Taipei Free免費無線上網熱點(室內)</HOTSPOT_TYPE><LNG>121.533107</LNG><LAT>25.042023</LAT><STATUS>0</STATUS></hotspot><hotspot><AP_ID>DA050110</AP_ID><HOTSPOT_NAME>忠孝新生站(南港線)</HOTSPOT_NAME><AREA>捷運站</AREA><ADDRESS>臺北市大安區新生南路一段67號(2號出口手扶梯旁B1)</ADDRESS><HOTSPOT_TYPE>Taipei Free免費無線上網熱點(室內)</HOTSPOT_TYPE><LNG>121.533107</LNG><LAT>25.042023</LAT><STATUS>0</STATUS></hotspot><hotspot><AP_ID>DA050111</AP_ID><HOTSPOT_NAME>忠孝新生站(南港線)</HOTSPOT_NAME><AREA>捷運站</AREA><ADDRESS>臺北市大安區新生南路一段67號(3,4號出口中間服務處B1)</ADDRESS><HOTSPOT_TYPE>Taipei Free免費無線上網熱點(室內)</HOTSPOT_TYPE><LNG>121.533107</LNG><LAT>25.042023</LAT><STATUS>0</STATUS></hotspot><hotspot><AP_ID>DA050112</AP_ID><HOTSPOT_NAME>忠孝新生站(南港線)</HOTSPOT_NAME><AREA>捷運站</AREA><ADDRESS>臺北市大安區新生南路一段67號(3號出口手扶梯旁B1)</ADDRESS><HOTSPOT_TYPE>Taipei Free免費無線上網熱點(室內)</HOTSPOT_TYPE><LNG>121.533107</LNG><LAT>25.042023</LAT><STATUS>0</STATUS></hotspot><hotspot><AP_ID>DA050114</AP_ID><HOTSPOT_NAME>忠孝新生站(南港線)</HOTSPOT_NAME><AREA>捷運站</AREA><ADDRESS>臺北市大安區新生南路一段67號(4號出口手扶梯旁B1)</ADDRESS><HOTSPOT_TYPE>Taipei Free免費無線上網熱點(室內)</HOTSPOT_TYPE><LNG>121.533107</LNG><LAT>25.042023</LAT><STATUS>0</STATUS></hotspot><hotspot><AP_ID>DA050118</AP_ID><HOTSPOT_NAME>忠孝新生站(蘆洲線)</HOTSPOT_NAME><AREA>捷運站</AREA><ADDRESS>臺北市大安區新生南路一段67號(AP位置:詢問處前上方)</ADDRESS><HOTSPOT_TYPE>Taipei Free免費無線上網熱點(室內)</HOTSPOT_TYPE><LNG>121.533107</LNG><LAT>25.042023</LAT><STATUS>0</STATUS></hotspot><hotspot><AP_ID>DA050119</AP_ID><HOTSPOT_NAME>忠孝新生站(蘆洲線)</HOTSPOT_NAME><AREA>捷運站</AREA><ADDRESS>臺北市大安區新生南路一段67號(AP位置:三月台中前端兩樓梯中間靠月台上方)</ADDRESS><HOTSPOT_TYPE>Taipei Free免費無線上網熱點(室內)</HOTSPOT_TYPE><LNG>121.533107</LNG><LAT>25.042023</LAT><STATUS>0</STATUS></hotspot><hotspot><AP_ID>DA050120</AP_ID><HOTSPOT_NAME>忠孝新生站(蘆洲線)</HOTSPOT_NAME><AREA>捷運站</AREA><ADDRESS>臺北市大安區新生南路一段67號(AP位置:四月台中間座位區靠月台上方)</ADDRESS><HOTSPOT_TYPE>Taipei Free免費無線上網熱點(室內)</HOTSPOT_TYPE><LNG>121.533107</LNG><LAT>25.042023</LAT><STATUS>0</STATUS></hotspot><hotspot><AP_ID>DA050121</AP_ID><HOTSPOT_NAME>臺北地下街</HOTSPOT_NAME><AREA>地下街</AREA><ADDRESS>臺北市中正區市民大道一段100號(Y12出口前)</ADDRESS><HOTSPOT_TYPE>Taipei Free免費無線上網熱點(室內)</HOTSPOT_TYPE><LNG>121.515045</LNG><LAT>25.048704</LAT><STATUS>0</STATUS></hotspot><hotspot><AP_ID>DA050122</AP_ID><HOTSPOT_NAME>臺北地下街</HOTSPOT_NAME><AREA>地下街</AREA><ADDRESS>臺北市中正區市民大道一段100號(Y13出口前)</ADDRESS><HOTSPOT_TYPE>Taipei Free免費無線上網熱點(室內)</HOTSPOT_TYPE><LNG>121.515045</LNG><LAT>25.048704</LAT><STATUS>0</STATUS></hotspot><hotspot><AP_ID>DA050123</AP_ID><HOTSPOT_NAME>臺北地下街</HOTSPOT_NAME><AREA>地下街</AREA><ADDRESS>臺北市中正區市民大道一段100號(Y18出口前)</ADDRESS><HOTSPOT_TYPE>Taipei Free免費無線上網熱點(室內)</HOTSPOT_TYPE><LNG>121.515045</LNG><LAT>25.048704</LAT><STATUS>0</STATUS></hotspot><hotspot><AP_ID>DA050124</AP_ID><HOTSPOT_NAME>臺北地下街</HOTSPOT_NAME><AREA>地下街</AREA><ADDRESS>臺北市中正區市民大道一段100號(Y21出口前)</ADDRESS><HOTSPOT_TYPE>Taipei Free免費無線上網熱點(室內)</HOTSPOT_TYPE><LNG>121.515045</LNG><LAT>25.048704</LAT><STATUS>0</STATUS></hotspot><hotspot><AP_ID>DA050125</AP_ID><HOTSPOT_NAME>臺北地下街</HOTSPOT_NAME><AREA>地下街</AREA><ADDRESS>臺北市中正區市民大道一段100號(Y25.27出口前)</ADDRESS><HOTSPOT_TYPE>Taipei Free免費無線上網熱點(室內)</HOTSPOT_TYPE><LNG>121.515045</LNG><LAT>25.048704</LAT><STATUS>0</STATUS></hotspot><hotspot><AP_ID>DA050126</AP_ID><HOTSPOT_NAME>臺北地下街</HOTSPOT_NAME><AREA>地下街</AREA><ADDRESS>臺北市中正區市民大道一段100號(Y26出口前)</ADDRESS><HOTSPOT_TYPE>Taipei Free免費無線上網熱點(室內)</HOTSPOT_TYPE><LNG>121.515045</LNG><LAT>25.048704</LAT><STATUS>0</STATUS></hotspot><hotspot><AP_ID>DA050127</AP_ID><HOTSPOT_NAME>臺北地下街</HOTSPOT_NAME><AREA>地下街</AREA><ADDRESS>臺北市中正區市民大道一段100號(Y2出口(臺北市建成地政事務所前))</ADDRESS><HOTSPOT_TYPE>Taipei Free免費無線上網熱點(室內)</HOTSPOT_TYPE><LNG>121.518565</LNG><LAT>25.04828</LAT><STATUS>0</STATUS></hotspot><hotspot><AP_ID>DA050129</AP_ID><HOTSPOT_NAME>臺北地下街</HOTSPOT_NAME><AREA>地下街</AREA><ADDRESS>臺北市中正區市民大道一段100號(Y2出口裡面)</ADDRESS><HOTSPOT_TYPE>Taipei Free免費無線上網熱點(室內)</HOTSPOT_TYPE><LNG>121.515045</LNG><LAT>25.048704</LAT><STATUS>0</STATUS></hotspot><hotspot><AP_ID>DA050130</AP_ID><HOTSPOT_NAME>臺北地下街</HOTSPOT_NAME><AREA>地下街</AREA><ADDRESS>臺北市中正區市民大道一段100號(Y3與Y4出口中間廣場)(面對舞台右前方)</ADDRESS><HOTSPOT_TYPE>Taipei Free免費無線上網熱點(室內)</HOTSPOT_TYPE><LNG>121.515045</LNG><LAT>25.048704</LAT><STATUS>0</STATUS></hotspot><hotspot><AP_ID>DA050131</AP_ID><HOTSPOT_NAME>臺北地下街</HOTSPOT_NAME><AREA>地下街</AREA><ADDRESS>臺北市中正區市民大道一段100號(Y5出口前)</ADDRESS><HOTSPOT_TYPE>Taipei Free免費無線上網熱點(室內)</HOTSPOT_TYPE><LNG>121.515045</LNG><LAT>25.048704</LAT><STATUS>0</STATUS></hotspot><hotspot><AP_ID>DA050132</AP_ID><HOTSPOT_NAME>臺北地下街</HOTSPOT_NAME><AREA>地下街</AREA><ADDRESS>臺北市中正區市民大道一段100號(Y8出口前)</ADDRESS><HOTSPOT_TYPE>Taipei Free免費無線上網熱點(室內)</HOTSPOT_TYPE><LNG>121.515045</LNG><LAT>25.048704</LAT><STATUS>0</STATUS></hotspot><hotspot><AP_ID>DA050133</AP_ID><HOTSPOT_NAME>臺北地下街</HOTSPOT_NAME><AREA>地下街</AREA><ADDRESS>臺北市中正區市民大道一段100號(Y9出口前)</ADDRESS><HOTSPOT_TYPE>Taipei Free免費無線上網熱點(室內)</HOTSPOT_TYPE><LNG>121.515045</LNG><LAT>25.048704</LAT><STATUS>0</STATUS></hotspot><hotspot><AP_ID>DA050136</AP_ID><HOTSPOT_NAME>大安森林公園站</HOTSPOT_NAME><AREA>捷運站</AREA><ADDRESS>臺北市大安區信義路三段100號B1(上網桌旁)</ADDRESS><HOTSPOT_TYPE>Taipei Free免費無線上網熱點(室內)</HOTSPOT_TYPE><LNG>121.539381</LNG><LAT>25.037542</LAT><STATUS>0</STATUS></hotspot><hotspot><AP_ID>DA050137</AP_ID><HOTSPOT_NAME>大安森林公園站</HOTSPOT_NAME><AREA>捷運站</AREA><ADDRESS>臺北市大安區信義路三段100號B1(月台層往北投方向中央樓梯前方(門號131前方)</ADDRESS><HOTSPOT_TYPE>Taipei Free免費無線上網熱點(室內)</HOTSPOT_TYPE><LNG>121.539381</LNG><LAT>25.037542</LAT><STATUS>0</STATUS></hotspot><hotspot><AP_ID>DA050138</AP_ID><HOTSPOT_NAME>大安森林公園站</HOTSPOT_NAME><AREA>捷運站</AREA><ADDRESS>臺北市大安區信義路三段100號B1(月台層往象山方向中央樓梯前方(門號231前方))</ADDRESS><HOTSPOT_TYPE>Taipei Free免費無線上網熱點(室內)</HOTSPOT_TYPE><LNG>121.539381</LNG><LAT>25.037542</LAT><STATUS>0</STATUS></hotspot><hotspot><AP_ID>DA050139</AP_ID><HOTSPOT_NAME>大安站(信義線)</HOTSPOT_NAME><AREA>捷運站</AREA><ADDRESS>臺北市大安區信義路四段2號(大廳層非付費區上網桌前)</ADDRESS><HOTSPOT_TYPE>Taipei Free免費無線上網熱點(室內)</HOTSPOT_TYPE><LNG>121.542359</LNG><LAT>25.033189</LAT><STATUS>0</STATUS></hotspot><hotspot><AP_ID>DA050140</AP_ID><HOTSPOT_NAME>大安站(信義線)</HOTSPOT_NAME><AREA>捷運站</AREA><ADDRESS>臺北市大安區信義路四段2號(月台層往北投方向電梯後方(門號131前方))</ADDRESS><HOTSPOT_TYPE>Taipei Free免費無線上網熱點(室內)</HOTSPOT_TYPE><LNG>121.542359</LNG><LAT>25.033189</LAT><STATUS>0</STATUS></hotspot><hotspot><AP_ID>DA050141</AP_ID><HOTSPOT_NAME>大安站(信義線)</HOTSPOT_NAME><AREA>捷運站</AREA><ADDRESS>臺北市大安區信義路四段2號(月台層往文湖線方向電扶梯前方(門號231前方))</ADDRESS><HOTSPOT_TYPE>Taipei Free免費無線上網熱點(室內)</HOTSPOT_TYPE><LNG>121.542359</LNG><LAT>25.033189</LAT><STATUS>0</STATUS></hotspot><hotspot><AP_ID>DA050142</AP_ID><HOTSPOT_NAME>信義安和站</HOTSPOT_NAME><AREA>捷運站</AREA><ADDRESS>臺北市大安區信義路四段212-1號B1(大廳層付費區電梯後方)</ADDRESS><HOTSPOT_TYPE>Taipei Free免費無線上網熱點(室內)</HOTSPOT_TYPE><LNG>121.551845</LNG><LAT>25.033039</LAT><STATUS>0</STATUS></hotspot><hotspot><AP_ID>DA050143</AP_ID><HOTSPOT_NAME>信義安和站</HOTSPOT_NAME><AREA>捷運站</AREA><ADDRESS>臺北市大安區信義路四段212-1號B1(月台層中央電梯前方(門號142前方))</ADDRESS><HOTSPOT_TYPE>Taipei Free免費無線上網熱點(室內)</HOTSPOT_TYPE><LNG>121.551845</LNG><LAT>25.033039</LAT><STATUS>0</STATUS></hotspot><hotspot><AP_ID>DA050144</AP_ID><HOTSPOT_NAME>信義安和站</HOTSPOT_NAME><AREA>捷運站</AREA><ADDRESS>臺北市大安區信義路四段212-1號B1(月台層往象山方向電扶梯前方(門號154前方))</ADDRESS><HOTSPOT_TYPE>Taipei Free免費無線上網熱點(室內)</HOTSPOT_TYPE><LNG>121.551845</LNG><LAT>25.033039</LAT><STATUS>0</STATUS></hotspot><hotspot><AP_ID>DA050145</AP_ID><HOTSPOT_NAME>信義安和站</HOTSPOT_NAME><AREA>捷運站</AREA><ADDRESS>臺北市大安區信義路四段212-1號B1(月台層往北投方向樓梯前方(門號122前方))</ADDRESS><HOTSPOT_TYPE>Taipei Free免費無線上網熱點(室內)</HOTSPOT_TYPE><LNG>121.551845</LNG><LAT>25.033039</LAT><STATUS>0</STATUS></hotspot><hotspot><AP_ID>DA060230</AP_ID><HOTSPOT_NAME>大安森林公園</HOTSPOT_NAME><AREA>公園</AREA><ADDRESS>臺北市大安區新生南路二段1號(音樂台)</ADDRESS><HOTSPOT_TYPE>Taipei Free免費無線上網熱點(室內)</HOTSPOT_TYPE><LNG>121.535552</LNG><LAT>25.031061</LAT><STATUS>0</STATUS></hotspot><hotspot><AP_ID>DA070012</AP_ID><HOTSPOT_NAME>主要街道</HOTSPOT_NAME><AREA>主要街道</AREA><ADDRESS>臺北市大安區光復南路262號(騎樓吸頂)</ADDRESS><HOTSPOT_TYPE>Taipei Free免費無線上網熱點(室內)</HOTSPOT_TYPE><LNG>121.557558</LNG><LAT>25.040194</LAT><STATUS>0</STATUS></hotspot><hotspot><AP_ID>DA070015</AP_ID><HOTSPOT_NAME>主要街道</HOTSPOT_NAME><AREA>主要街道</AREA><ADDRESS>臺北市大安區安和路二段74巷1號(招牌OMNI)</ADDRESS><HOTSPOT_TYPE>Taipei Free免費無線上網熱點(室內)</HOTSPOT_TYPE><LNG>121.551595</LNG><LAT>25.030038</LAT><STATUS>0</STATUS></hotspot><hotspot><AP_ID>DA070020</AP_ID><HOTSPOT_NAME>主要街道</HOTSPOT_NAME><AREA>主要街道</AREA><ADDRESS>臺北市大安區和平東路一段169號(騎樓吸頂)</ADDRESS><HOTSPOT_TYPE>Taipei Free免費無線上網熱點(室內)</HOTSPOT_TYPE><LNG>121.532061</LNG><LAT>25.026457</LAT><STATUS>0</STATUS></hotspot><hotspot><AP_ID>DA070023</AP_ID><HOTSPOT_NAME>主要街道</HOTSPOT_NAME><AREA>主要街道</AREA><ADDRESS>臺北市大安區和平東路二段118巷33號(OMNI，門市外上方外牆)</ADDRESS><HOTSPOT_TYPE>Taipei Free免費無線上網熱點(室內)</HOTSPOT_TYPE><LNG>121.542901</LNG><LAT>25.023523</LAT><STATUS>0</STATUS></hotspot><hotspot><AP_ID>DA070024</AP_ID><HOTSPOT_NAME>主要街道</HOTSPOT_NAME><AREA>主要街道</AREA><ADDRESS>臺北市大安區和平東路二段18號(OMNI，門市外牆)</ADDRESS><HOTSPOT_TYPE>Taipei Free免費無線上網熱點(室內)</HOTSPOT_TYPE><LNG>121.535972</LNG><LAT>25.025699</LAT><STATUS>0</STATUS></hotspot><hotspot><AP_ID>DA070039</AP_ID><HOTSPOT_NAME>主要街道</HOTSPOT_NAME><AREA>主要街道</AREA><ADDRESS>臺北市大安區延吉街72號(門市外騎樓吸頂)</ADDRESS><HOTSPOT_TYPE>Taipei Free免費無線上網熱點(室內)</HOTSPOT_TYPE><LNG>121.554192</LNG><LAT>25.042522</LAT><STATUS>0</STATUS></hotspot><hotspot><AP_ID>DA070046</AP_ID><HOTSPOT_NAME>主要街道</HOTSPOT_NAME><AREA>主要街道</AREA><ADDRESS>臺北市大安區忠孝東路三段248巷9號(OMNI，門市外側邊外牆)</ADDRESS><HOTSPOT_TYPE>Taipei Free免費無線上網熱點(室內)</HOTSPOT_TYPE><LNG>121.541391</LNG><LAT>25.041067</LAT><STATUS>0</STATUS></hotspot><hotspot><AP_ID>DA070052</AP_ID><HOTSPOT_NAME>主要街道</HOTSPOT_NAME><AREA>主要街道</AREA><ADDRESS>臺北市大安區忠孝東路四段216巷68號(OMNI)</ADDRESS><HOTSPOT_TYPE>Taipei Free免費無線上網熱點(室內)</HOTSPOT_TYPE><LNG>121.552885</LNG><LAT>25.038084</LAT><STATUS>0</STATUS></hotspot><hotspot><AP_ID>DA070056</AP_ID><HOTSPOT_NAME>主要街道</HOTSPOT_NAME><AREA>主要街道</AREA><ADDRESS>臺北市大安區東豐街9號(騎樓吸頂，門市外、橫招側邊、靠近冷機壓縮機)</ADDRESS><HOTSPOT_TYPE>Taipei Free免費無線上網熱點(室內)</HOTSPOT_TYPE><LNG>121.544267</LNG><LAT>25.036114</LAT><STATUS>0</STATUS></hotspot><hotspot><AP_ID>DA070094</AP_ID><HOTSPOT_NAME>主要街道</HOTSPOT_NAME><AREA>主要街道</AREA><ADDRESS>臺北市大安區復興南路一段135巷5號(橫招旁OMNI)</ADDRESS><HOTSPOT_TYPE>Taipei Free免費無線上網熱點(室內)</HOTSPOT_TYPE><LNG>121.544541</LNG><LAT>25.042696</LAT><STATUS>0</STATUS></hotspot><hotspot><AP_ID>DA070100</AP_ID><HOTSPOT_NAME>主要街道</HOTSPOT_NAME><AREA>主要街道</AREA><ADDRESS>臺北市大安區敦化南路一段187巷29號(吸頂)</ADDRESS><HOTSPOT_TYPE>Taipei Free免費無線上網熱點(室內)</HOTSPOT_TYPE><LNG>121.550671</LNG><LAT>25.042638</LAT><STATUS>0</STATUS></hotspot><hotspot><AP_ID>DA080001</AP_ID><HOTSPOT_NAME>永康夜市</HOTSPOT_NAME><AREA>觀光夜市</AREA><ADDRESS>臺北市大安區永康街43號(OMNI，門市外側邊外牆)</ADDRESS><HOTSPOT_TYPE>Taipei Free免費無線上網熱點(室內)</HOTSPOT_TYPE><LNG>121.529595</LNG><LAT>25.030427</LAT><STATUS>0</STATUS></hotspot><hotspot><AP_ID>DA080002</AP_ID><HOTSPOT_NAME>臨江街夜市</HOTSPOT_NAME><AREA>觀光夜市</AREA><ADDRESS>臺北市大安區安和路二段67號(OMNI，門市外牆)</ADDRESS><HOTSPOT_TYPE>Taipei Free免費無線上網熱點(室內)</HOTSPOT_TYPE><LNG>121.552601</LNG><LAT>25.030492</LAT><STATUS>0</STATUS></hotspot><hotspot><AP_ID>DA120001</AP_ID><HOTSPOT_NAME>大安區健康服務中心</HOTSPOT_NAME><AREA>健康服務中心</AREA><ADDRESS>臺北市大安區辛亥路三段15號(1樓物理治療室)</ADDRESS><HOTSPOT_TYPE>Taipei Free免費無線上網熱點(室內)</HOTSPOT_TYPE><LNG>121.544274</LNG><LAT>25.021577</LAT><STATUS>0</STATUS></hotspot><hotspot><AP_ID>DA120002</AP_ID><HOTSPOT_NAME>大安區健康服務中心</HOTSPOT_NAME><AREA>健康服務中心</AREA><ADDRESS>臺北市大安區辛亥路三段15號(2樓會議室)</ADDRESS><HOTSPOT_TYPE>Taipei Free免費無線上網熱點(室內)</HOTSPOT_TYPE><LNG>121.544274</LNG><LAT>25.021577</LAT><STATUS>0</STATUS></hotspot><hotspot><AP_ID>DA130001</AP_ID><HOTSPOT_NAME>大安運動中心</HOTSPOT_NAME><AREA>運動中心</AREA><ADDRESS>臺北市大安區辛亥路三段55號(1F廁所前)</ADDRESS><HOTSPOT_TYPE>Taipei Free免費無線上網熱點(室內)</HOTSPOT_TYPE><LNG>121.545636</LNG><LAT>25.020777</LAT><STATUS>0</STATUS></hotspot><hotspot><AP_ID>DA130002</AP_ID><HOTSPOT_NAME>大安運動中心</HOTSPOT_NAME><AREA>運動中心</AREA><ADDRESS>臺北市大安區辛亥路三段55號(1服務台前方左側電視上方)</ADDRESS><HOTSPOT_TYPE>Taipei Free免費無線上網熱點(室內)</HOTSPOT_TYPE><LNG>121.545636</LNG><LAT>25.020777</LAT><STATUS>0</STATUS></hotspot><hotspot><AP_ID>DA130003</AP_ID><HOTSPOT_NAME>大安運動中心</HOTSPOT_NAME><AREA>運動中心</AREA><ADDRESS>臺北市大安區辛亥路三段55號(2F廁所前)</ADDRESS><HOTSPOT_TYPE>Taipei Free免費無線上網熱點(室內)</HOTSPOT_TYPE><LNG>121.545636</LNG><LAT>25.020777</LAT><STATUS>0</STATUS></hotspot><hotspot><AP_ID>DA130004</AP_ID><HOTSPOT_NAME>大安運動中心</HOTSPOT_NAME><AREA>運動中心</AREA><ADDRESS>臺北市大安區辛亥路三段55號(2F電梯右)</ADDRESS><HOTSPOT_TYPE>Taipei Free免費無線上網熱點(室內)</HOTSPOT_TYPE><LNG>121.545636</LNG><LAT>25.020777</LAT><STATUS>0</STATUS></hotspot><hotspot><AP_ID>DA130005</AP_ID><HOTSPOT_NAME>大安運動中心</HOTSPOT_NAME><AREA>運動中心</AREA><ADDRESS>臺北市大安區辛亥路三段55號(2F電梯左)</ADDRESS><HOTSPOT_TYPE>Taipei Free免費無線上網熱點(室內)</HOTSPOT_TYPE><LNG>121.545636</LNG><LAT>25.020777</LAT><STATUS>0</STATUS></hotspot><hotspot><AP_ID>DA130006</AP_ID><HOTSPOT_NAME>大安運動中心</HOTSPOT_NAME><AREA>運動中心</AREA><ADDRESS>臺北市大安區辛亥路三段55號(3F多功能綜合場館前)</ADDRESS><HOTSPOT_TYPE>Taipei Free免費無線上網熱點(室內)</HOTSPOT_TYPE><LNG>121.545636</LNG><LAT>25.020777</LAT><STATUS>0</STATUS></hotspot><hotspot><AP_ID>DA130007</AP_ID><HOTSPOT_NAME>大安運動中心</HOTSPOT_NAME><AREA>運動中心</AREA><ADDRESS>臺北市大安區辛亥路三段55號(3F廁所前)</ADDRESS><HOTSPOT_TYPE>Taipei Free免費無線上網熱點(室內)</HOTSPOT_TYPE><LNG>121.545636</LNG><LAT>25.020777</LAT><STATUS>0</STATUS></hotspot><hotspot><AP_ID>DA130008</AP_ID><HOTSPOT_NAME>大安運動中心</HOTSPOT_NAME><AREA>運動中心</AREA><ADDRESS>臺北市大安區辛亥路三段55號(3F電梯右)</ADDRESS><HOTSPOT_TYPE>Taipei Free免費無線上網熱點(室內)</HOTSPOT_TYPE><LNG>121.545636</LNG><LAT>25.020777</LAT><STATUS>0</STATUS></hotspot><hotspot><AP_ID>DA130009</AP_ID><HOTSPOT_NAME>大安運動中心</HOTSPOT_NAME><AREA>運動中心</AREA><ADDRESS>臺北市大安區辛亥路三段55號(4F廁所前)</ADDRESS><HOTSPOT_TYPE>Taipei Free免費無線上網熱點(室內)</HOTSPOT_TYPE><LNG>121.545636</LNG><LAT>25.020777</LAT><STATUS>0</STATUS></hotspot><hotspot><AP_ID>DA180001</AP_ID><HOTSPOT_NAME>大安地政事務所</HOTSPOT_NAME><AREA>地政事務所</AREA><ADDRESS>臺北市大安區信義路四段335巷6號(入口左上方)</ADDRESS><HOTSPOT_TYPE>Taipei Free免費無線上網熱點(室內)</HOTSPOT_TYPE><LNG>121.556438</LNG><LAT>25.033828</LAT><STATUS>0</STATUS></hotspot><hotspot><AP_ID>DA180002</AP_ID><HOTSPOT_NAME>大安地政事務所</HOTSPOT_NAME><AREA>地政事務所</AREA><ADDRESS>臺北市大安區信義路四段335巷6號(民眾休息區)</ADDRESS><HOTSPOT_TYPE>Taipei Free免費無線上網熱點(室內)</HOTSPOT_TYPE><LNG>121.556438</LNG><LAT>25.033828</LAT><STATUS>0</STATUS></hotspot><hotspot><AP_ID>DA220001</AP_ID><HOTSPOT_NAME>自來水事業處客服中心</HOTSPOT_NAME><AREA>自來水事業處</AREA><ADDRESS>臺北市大安區長興街131號1樓(服務台內鐵櫃旁)</ADDRESS><HOTSPOT_TYPE>Taipei Free免費無線上網熱點(室內)</HOTSPOT_TYPE><LNG>121.547894</LNG><LAT>25.014249</LAT><STATUS>0</STATUS></hotspot><hotspot><AP_ID>DA220002</AP_ID><HOTSPOT_NAME>延吉綜合福利大樓</HOTSPOT_NAME><AREA>為民服務單位</AREA><ADDRESS>臺北市大安區延吉街246巷10號(大教室入口左上方)</ADDRESS><HOTSPOT_TYPE>Taipei Free免費無線上網熱點(室內)</HOTSPOT_TYPE><LNG>121.555043</LNG><LAT>25.035346</LAT><STATUS>0</STATUS></hotspot><hotspot><AP_ID>DA220003</AP_ID>